[{"iata":"AAA","name":"Anaa Airport","city":"","country":"PF","lat":-17.3526000977,"lng":-145.5099945068},{"iata":"AAB","name":"Arrabury Airport","city":"","country":"AU","lat":-26.7000007629,"lng":141.0500030518},{"iata":"AAC","name":"El Arish International Airport","city":"El Arish","country":"EG","lat":31.073299408,"lng":33.8358001709},{"iata":"AAD","name":"Adado Airport","city":"Adado","country":"SO","lat":6.095833,"lng":46.6375},{"iata":"AAE","name":"Annaba Airport","city":"Annabah","country":"DZ","lat":36.8222007751,"lng":7.8091697693},{"iata":"AAF","name":"Apalachicola Regional Airport","city":"Apalachicola","country":"US","lat":29.72750092,"lng":-85.02749634},{"iata":"AAG","name":"Arapoti Airport","city":"Arapoti","country":"BR","lat":-24.1039009094,"lng":-49.789100647},{"iata":"AAH","name":"Aachen-Merzbruck Airport","city":"Aachen","country":"DE","lat":50.8230552673,"lng":6.1863889694},{"iata":"AAI","name":"Arraias Airport","city":"Arraias","country":"BR","lat":-13.023888588,"lng":-46.8855552673},{"iata":"AAJ","name":"Cayana Airstrip","city":"Awaradam","country":"SR","lat":3.898681,"lng":-55.577907},{"iata":"AAK","name":"Buariki Airport","city":"Buariki","country":"KI","lat":0.1852779984,"lng":173.6369934082},{"iata":"AAL","name":"Aalborg Airport","city":"Aalborg","country":"DK","lat":57.0927589138,"lng":9.8492431641},{"iata":"AAM","name":"Malamala Airport","city":"Malamala","country":"ZA","lat":-24.8180999756,"lng":31.5445995331},{"iata":"AAN","name":"Al Ain International Airport","city":"Al Ain","country":"AE","lat":24.2616996765,"lng":55.6091995239},{"iata":"AAO","name":"Anaco Airport","city":"Anaco","country":"VE","lat":9.4302253723,"lng":-64.4707260132},{"iata":"AAP","name":"Aji Pangeran Tumenggung Pranoto International Airport","city":"Samarinda","country":"ID","lat":-0.373611,"lng":117.255556},{"iata":"AAQ","name":"Anapa Airport","city":"Anapa","country":"RU","lat":45.0021018982,"lng":37.3473014832},{"iata":"AAR","name":"Aarhus Airport","city":"Aarhus","country":"DK","lat":56.2999992371,"lng":10.6190004349},{"iata":"AAT","name":"Altay Air Base","city":"Altay","country":"CN","lat":47.7498855591,"lng":88.0858078003},{"iata":"AAU","name":"Asau Airport","city":"Asau","country":"WS","lat":-13.5058002472,"lng":-172.628005981},{"iata":"AAV","name":"Allah Valley Airport","city":"Surallah","country":"PH","lat":6.3668198586,"lng":124.7509994507},{"iata":"AAW","name":"Abbottabad Airport","city":"Abbottabad","country":"PK","lat":34.2000007629,"lng":73.25},{"iata":"AAX","name":"Araxa Airport","city":"Araxa","country":"BR","lat":-19.5631999969,"lng":-46.9603996277},{"iata":"AAY","name":"Al Ghaidah International Airport","city":"","country":"YE","lat":16.1916999817,"lng":52.1749992371},{"iata":"AAZ","name":"Quezaltenango Airport","city":"Quezaltenango","country":"GT","lat":14.8655996323,"lng":-91.5019989014},{"iata":"ABA","name":"Abakan Airport","city":"Abakan","country":"RU","lat":53.7400016785,"lng":91.3850021362},{"iata":"ABB","name":"Asaba International Airport","city":"Asaba","country":"NG","lat":6.2033333333,"lng":6.6588888889},{"iata":"ABC","name":"Albacete-Los Llanos Airport","city":"Albacete","country":"ES","lat":38.9485015869,"lng":-1.8635200262},{"iata":"ABD","name":"Abadan Airport","city":"Abadan","country":"IR","lat":30.371099472,"lng":48.2282981873},{"iata":"ABE","name":"Lehigh Valley International Airport","city":"Allentown","country":"US","lat":40.6520996094,"lng":-75.4408035278},{"iata":"ABF","name":"Abaiang Airport","city":"Abaiang","country":"KI","lat":1.798609972,"lng":173.0410003662},{"iata":"ABG","name":"Abingdon Downs Airport","city":"","country":"AU","lat":-17.6166992188,"lng":143.167007446},{"iata":"ABH","name":"Alpha Airport","city":"","country":"AU","lat":-23.6460990906,"lng":146.5839996338},{"iata":"ABI","name":"Abilene Regional Airport","city":"Abilene","country":"US","lat":32.4113006592,"lng":-99.6819000244},{"iata":"ABJ","name":"Port Bouet Airport","city":"Abidjan","country":"CI","lat":5.2613902092,"lng":-3.9262900352},{"iata":"ABK","name":"Kabri Dehar Airport","city":"Kabri Dehar","country":"ET","lat":6.734000206,"lng":44.2529983521},{"iata":"ABL","name":"Ambler Airport","city":"Ambler","country":"US","lat":67.106300354,"lng":-157.856994629},{"iata":"ABM","name":"Bamaga Injinoo Airport","city":"","country":"AU","lat":-10.950799942,"lng":142.4589996338},{"iata":"ABN","name":"Albina Airport","city":"Albina","country":"SR","lat":5.512720108,"lng":-54.0500984192},{"iata":"ABO","name":"Aboisso Airport","city":"Aboisso","country":"CI","lat":5.461944,"lng":-3.234722},{"iata":"ABQ","name":"Albuquerque International Sunport Airport","city":"Albuquerque","country":"US","lat":35.0401992798,"lng":-106.6090011597},{"iata":"ABR","name":"Aberdeen Regional Airport","city":"Aberdeen","country":"US","lat":45.4491004944,"lng":-98.4217987061},{"iata":"ABS","name":"Abu Simbel Airport","city":"Abu Simbel","country":"EG","lat":22.3759994507,"lng":31.611700058},{"iata":"ABT","name":"Al Baha Airport","city":"","country":"SA","lat":20.2961006165,"lng":41.6343002319},{"iata":"ABU","name":"Haliwen Airport","city":"Atambua-Timor Island","country":"ID","lat":-9.0730495453,"lng":124.9049987793},{"iata":"ABV","name":"Nnamdi Azikiwe International Airport","city":"Abuja","country":"NG","lat":9.0067901611,"lng":7.2631697655},{"iata":"ABX","name":"Albury Airport","city":"Albury","country":"AU","lat":-36.0677986145,"lng":146.9579925537},{"iata":"ABY","name":"Southwest Georgia Regional Airport","city":"Albany","country":"US","lat":31.5354995728,"lng":-84.1945037842},{"iata":"ABZ","name":"Aberdeen Dyce Airport","city":"Aberdeen","country":"GB","lat":57.2019004822,"lng":-2.1977798939},{"iata":"ACA","name":"General Juan N Alvarez International Airport","city":"Acapulco","country":"MX","lat":16.7570991516,"lng":-99.7539978027},{"iata":"ACB","name":"Antrim County Airport","city":"Bellaire","country":"US","lat":44.9886016846,"lng":-85.1984024048},{"iata":"ACC","name":"Kotoka International Airport","city":"Accra","country":"GH","lat":5.6051898003,"lng":-0.1667860001},{"iata":"ACD","name":"Alcides Fernandez Airport","city":"Acandi","country":"CO","lat":8.51667,"lng":-77.3},{"iata":"ACE","name":"Lanzarote Airport","city":"Lanzarote Island","country":"ES","lat":28.9454994202,"lng":-13.6051998138},{"iata":"ACF","name":"Aral Talim Airport","city":"Aral","country":"CN","lat":40.43579916378331,"lng":81.26411705534605},{"iata":"ACH","name":"St Gallen Altenrhein Airport","city":"Altenrhein","country":"CH","lat":47.4850006104,"lng":9.5607700348},{"iata":"ACI","name":"Alderney Airport","city":"Saint Anne","country":"GG","lat":49.7061004639,"lng":-2.2147200108},{"iata":"ACJ","name":"Anuradhapura Air Force Base","city":"Anuradhapura","country":"LK","lat":8.30148983,"lng":80.4279022217},{"iata":"ACK","name":"Nantucket Memorial Airport","city":"Nantucket","country":"US","lat":41.25310135,"lng":-70.06020355},{"iata":"ACN","name":"Ciudad Acuna New International Airport","city":"Ciudad Acuna","country":"MX","lat":29.3328990936,"lng":-101.0989990234},{"iata":"ACP","name":"Sahand Airport","city":"Maragheh","country":"IR","lat":37.3479995728,"lng":46.1278991699},{"iata":"ACR","name":"Araracuara Airport","city":"Araracuara","country":"CO","lat":-0.5833,"lng":-72.4083},{"iata":"ACS","name":"Achinsk Airport","city":"Achinsk","country":"RU","lat":56.2682991028,"lng":90.5708007813},{"iata":"ACT","name":"Waco Regional Airport","city":"Waco","country":"US","lat":31.6112995148,"lng":-97.2304992676},{"iata":"ACV","name":"California Redwood Coast-Humboldt County Airport","city":"Arcata/Eureka","country":"US","lat":40.978099823,"lng":-124.1090011597},{"iata":"ACX","name":"Xingyi Airport","city":"Xingyi","country":"CN","lat":25.0863888889,"lng":104.959444444},{"iata":"ACY","name":"Atlantic City International Airport","city":"Atlantic City","country":"US","lat":39.4575996399,"lng":-74.5772018433},{"iata":"ACZ","name":"Zabol Airport","city":"","country":"IR","lat":31.0983009338,"lng":61.5438995361},{"iata":"ADA","name":"Adana Airport","city":"Adana","country":"TR","lat":36.9822006226,"lng":35.2803993225},{"iata":"ADB","name":"Adnan Menderes International Airport","city":"Izmir","country":"TR","lat":38.2924003601,"lng":27.156999588},{"iata":"ADC","name":"Andakombe Airport","city":"Andekombe","country":"PG","lat":-7.1372222222,"lng":145.744722222},{"iata":"ADD","name":"Bole International Airport","city":"Addis Ababa","country":"ET","lat":8.9778900147,"lng":38.7993011475},{"iata":"ADE","name":"Aden International Airport","city":"Aden","country":"YE","lat":12.8295001984,"lng":45.0288009644},{"iata":"ADF","name":"Adiyaman Airport","city":"Adiyaman","country":"TR","lat":37.7313995361,"lng":38.4688987732},{"iata":"ADG","name":"Lenawee County Airport","city":"Adrian","country":"US","lat":41.8676986694,"lng":-84.0773010254},{"iata":"ADH","name":"Aldan Airport","city":"Aldan","country":"RU","lat":58.6027984619,"lng":125.408996582},{"iata":"ADI","name":"Arandis Airport","city":"Arandis","country":"NA","lat":-22.4622001648,"lng":14.9799995422},{"iata":"ADJ","name":"Amman-Marka International Airport","city":"Amman","country":"JO","lat":31.972700119,"lng":35.9916000366},{"iata":"ADK","name":"Adak Airport","city":"Adak Island","country":"US","lat":51.8779983521,"lng":-176.6459960938},{"iata":"ADL","name":"Adelaide International Airport","city":"Adelaide","country":"AU","lat":-34.9449996948,"lng":138.5310058594},{"iata":"ADM","name":"Ardmore Municipal Airport","city":"Ardmore","country":"US","lat":34.30301,"lng":-97.0196342},{"iata":"ADN","name":"Andes Airport","city":"Andes","country":"CO","lat":5.66667,"lng":-75.8833},{"iata":"ADO","name":"Andamooka Airport","city":"","country":"AU","lat":-30.4382991791,"lng":137.1369934082},{"iata":"ADP","name":"Ampara Airport","city":"Ampara","country":"LK","lat":7.336944,"lng":81.630278},{"iata":"ADQ","name":"Kodiak Airport","city":"Kodiak","country":"US","lat":57.75,"lng":-152.4940033},{"iata":"ADR","name":"Robert F Swinnie Airport","city":"Andrews","country":"US","lat":33.4516983032,"lng":-79.5261993408},{"iata":"ADS","name":"Addison Airport","city":"Dallas","country":"US","lat":32.9686012268,"lng":-96.8364028931},{"iata":"ADT","name":"Ada Municipal Airport","city":"Ada","country":"US","lat":34.8042984009,"lng":-96.6713027954},{"iata":"ADU","name":"Ardabil Airport","city":"Ardabil","country":"IR","lat":38.3256988525,"lng":48.4244003296},{"iata":"ADW","name":"Andrews Air Force Base","city":"Camp Springs","country":"US","lat":38.810798645,"lng":-76.8669967651},{"iata":"ADX","name":"RAF Leuchars","city":"St. Andrews","country":"GB","lat":56.3728981018,"lng":-2.8684399128},{"iata":"ADY","name":"Alldays Airport","city":"Alldays","country":"ZA","lat":-22.6790008545,"lng":29.0555000305},{"iata":"ADZ","name":"Gustavo Rojas Pinilla International Airport","city":"San Andres","country":"CO","lat":12.5836,"lng":-81.7112},{"iata":"AEA","name":"Abemama Atoll Airport","city":"Abemama Atoll","country":"KI","lat":0.4908330142,"lng":173.828994751},{"iata":"AEB","name":"Tian Yang Air Base","city":"Baise","country":"CN","lat":23.7206001282,"lng":106.959999084},{"iata":"AEG","name":"Aek Godang Airport","city":"Padang Sidempuan","country":"ID","lat":1.400103,"lng":99.430453},{"iata":"AEH","name":"Abeche Airport","city":"","country":"TD","lat":13.8470001221,"lng":20.8442993164},{"iata":"AEL","name":"Albert Lea Municipal Airport","city":"Albert Lea","country":"US","lat":43.68149948,"lng":-93.36720276},{"iata":"AEM","name":"Amgu Airport","city":"Amgu","country":"RU","lat":45.84126,"lng":137.673568},{"iata":"AEO","name":"Aioun el Atrouss Airport","city":"Aioun El Atrouss","country":"MR","lat":16.7112998962,"lng":-9.6378803253},{"iata":"AEP","name":"Jorge Newbery Airpark","city":"Buenos Aires","country":"AR","lat":-34.5592,"lng":-58.4156},{"iata":"AER","name":"Sochi International Airport","city":"Sochi","country":"RU","lat":43.4499015808,"lng":39.9566001892},{"iata":"AES","name":"Alesund Airport","city":"Alesund","country":"NO","lat":62.5625,"lng":6.119699955},{"iata":"AET","name":"Allakaket Airport","city":"Allakaket","country":"US","lat":66.5518035889,"lng":-152.621994019},{"iata":"AEU","name":"Abumusa Island Airport","city":"","country":"IR","lat":25.8756999969,"lng":55.033000946},{"iata":"AEX","name":"Alexandria International Airport","city":"Alexandria","country":"US","lat":31.3274002075,"lng":-92.5497970581},{"iata":"AEY","name":"Akureyri Airport","city":"Akureyri","country":"IS","lat":65.6600036621,"lng":-18.0727005005},{"iata":"AFA","name":"Suboficial Ay Santiago Germano Airport","city":"San Rafael","country":"AR","lat":-34.5882987976,"lng":-68.4039001465},{"iata":"AFD","name":"Port Alfred Airport","city":"Port Alfred","country":"ZA","lat":-33.5541992188,"lng":26.8777008057},{"iata":"AFE","name":"Kake Airport","city":"Kake","country":"US","lat":56.9613990784,"lng":-133.9100036621},{"iata":"AFF","name":"USAF Academy Airfield","city":"Colorado Springs","country":"US","lat":38.96969986,"lng":-104.8130035},{"iata":"AFI","name":"Amalfi Airport","city":"Amalfi","country":"CO","lat":6.91667,"lng":-75.0667},{"iata":"AFL","name":"Alta Floresta Airport","city":"Alta Floresta","country":"BR","lat":-9.8663892746,"lng":-56.1049995422},{"iata":"AFN","name":"Jaffrey Airport Silver Ranch Airport","city":"Jaffrey","country":"US","lat":42.8050994873,"lng":-72.0029983521},{"iata":"AFO","name":"Afton Municipal Airport","city":"Afton","country":"US","lat":42.7112007141,"lng":-110.942001343},{"iata":"AFR","name":"Afore Airstrip","city":"Afore","country":"PG","lat":-9.14222,"lng":148.39083},{"iata":"AFS","name":"Sugraly Airport","city":"Zarafshan","country":"UZ","lat":41.613899231,"lng":64.2332000732},{"iata":"AFT","name":"Afutara Aerodrome","city":"Bila","country":"SB","lat":-9.1913888889,"lng":160.948611111},{"iata":"AFW","name":"Fort Worth Alliance Airport","city":"Fort Worth","country":"US","lat":32.9875984192,"lng":-97.3188018799},{"iata":"AFY","name":"Afyon Airport","city":"Afyonkarahisar","country":"TR","lat":38.726398468,"lng":30.6011009216},{"iata":"AFZ","name":"Sabzevar National Airport","city":"Sabzevar","country":"IR","lat":36.1680984497,"lng":57.595199585},{"iata":"AGA","name":"Al Massira Airport","city":"Agadir","country":"MA","lat":30.3250007629,"lng":-9.413069725},{"iata":"AGB","name":"Augsburg Airport","city":"Augsburg","country":"DE","lat":48.42527771,"lng":10.9316673279},{"iata":"AGC","name":"Allegheny County Airport","city":"Pittsburgh","country":"US","lat":40.3544006348,"lng":-79.9301986694},{"iata":"AGE","name":"Wangerooge Airport","city":"Wangerooge","country":"DE","lat":53.7827796936,"lng":7.9138889313},{"iata":"AGF","name":"Agen-La Garenne Airport","city":"Agen/La Garenne","country":"FR","lat":44.1747016907,"lng":0.5905560255},{"iata":"AGH","name":"Angelholm-Helsingborg Airport","city":"Angelholm","country":"SE","lat":56.2961006165,"lng":12.8471002579},{"iata":"AGI","name":"Wageningen Airport Airport","city":"Wageningen Airport","country":"SR","lat":5.7666668892,"lng":-56.6333312988},{"iata":"AGJ","name":"Aguni Airport","city":"Aguni","country":"JP","lat":26.5925006866,"lng":127.2409973145},{"iata":"AGL","name":"Wanigela Airport","city":"","country":"PG","lat":-9.3375,"lng":149.155555556},{"iata":"AGN","name":"Angoon Seaplane Base","city":"Angoon","country":"US","lat":57.503611,"lng":-134.585},{"iata":"AGO","name":"Magnolia Municipal Airport","city":"Magnolia","country":"US","lat":33.22800064,"lng":-93.21700287},{"iata":"AGP","name":"Malaga Airport","city":"Malaga","country":"ES","lat":36.6749000549,"lng":-4.4991102219},{"iata":"AGQ","name":"Agrinion Airport","city":"Agrinion","country":"GR","lat":38.6020011902,"lng":21.3512001038},{"iata":"AGR","name":"Agra Airport","city":"","country":"IN","lat":27.1557998657,"lng":77.960899353},{"iata":"AGS","name":"Augusta Regional At Bush Field","city":"Augusta","country":"US","lat":33.3698997498,"lng":-81.9645004272},{"iata":"AGT","name":"Guarani International Airport","city":"Ciudad del Este","country":"PY","lat":-25.4599990845,"lng":-54.8400001526},{"iata":"AGU","name":"Jesus Teran International Airport","city":"Aguascalientes","country":"MX","lat":21.7056007385,"lng":-102.318000793},{"iata":"AGV","name":"Oswaldo Guevara Mujica Airport","city":"Acarigua","country":"VE","lat":9.5533752441,"lng":-69.2378692627},{"iata":"AGX","name":"Agatti Airport","city":"","country":"IN","lat":10.8236999512,"lng":72.1760025024},{"iata":"AGZ","name":"Aggeneys Airport","city":"Aggeneys","country":"ZA","lat":-29.2817993164,"lng":18.8138999939},{"iata":"AHB","name":"Abha Regional Airport","city":"Abha","country":"SA","lat":18.2404003143,"lng":42.6566009521},{"iata":"AHC","name":"Amedee Army Air Field","city":"Herlong","country":"US","lat":40.26620102,"lng":-120.1529999},{"iata":"AHE","name":"Ahe Airport","city":"Ahe Atoll","country":"PF","lat":-14.4280996323,"lng":-146.2570037842},{"iata":"AHF","name":"Arapahoe Municipal Airport","city":"Arapahoe","country":"US","lat":40.34158333,"lng":-99.90780555},{"iata":"AHH","name":"Amery Municipal Airport","city":"Amery","country":"US","lat":45.2811012268,"lng":-92.3753967285},{"iata":"AHI","name":"Amahai Airport","city":"Amahai-Seram Island","country":"ID","lat":-3.3480000496,"lng":128.925994873},{"iata":"AHJ","name":"Ngawa Hongyuan Airport","city":"Hongyuan","country":"CN","lat":32.529167,"lng":102.356944},{"iata":"AHL","name":"Aishalton Airport","city":"Aishalton","country":"GY","lat":2.4865300655,"lng":-59.3134002686},{"iata":"AHM","name":"Ashland Municipal Sumner Parker Field","city":"Ashland","country":"US","lat":42.1902999878,"lng":-122.661003113},{"iata":"AHN","name":"Athens Ben Epps Airport","city":"Athens","country":"US","lat":33.948600769,"lng":-83.3263015747},{"iata":"AHO","name":"Alghero / Fertilia Airport","city":"Alghero","country":"IT","lat":40.6320991516,"lng":8.290769577},{"iata":"AHS","name":"Ahuas Airport","city":"Ahuas","country":"HN","lat":15.4722003937,"lng":-84.3522033691},{"iata":"AHU","name":"Cherif Al Idrissi Airport","city":"Al Hoceima","country":"MA","lat":35.1771011353,"lng":-3.8395199776},{"iata":"AHZ","name":"L'alpe D'huez Airport","city":"Bourg","country":"FR","lat":45.0882987976,"lng":6.0847201347},{"iata":"AIA","name":"Alliance Municipal Airport","city":"Alliance","country":"US","lat":42.0531997681,"lng":-102.804000854},{"iata":"AID","name":"Anderson Municipal Darlington Field","city":"Anderson","country":"US","lat":40.1086006165,"lng":-85.6129989624},{"iata":"AIE","name":"Aiome Airport","city":"Aiome","country":"PG","lat":-5.145699978,"lng":144.7307003},{"iata":"AIF","name":"Marcelo Pires Halzhausen Airport","city":"Assis","country":"BR","lat":-22.64,"lng":-50.453056},{"iata":"AIG","name":"Yalinga Airport","city":"Yalinga","country":"CF","lat":6.5199999809,"lng":23.2600002289},{"iata":"AII","name":"Ali-Sabieh Airport","city":"Ali-Sabieh","country":"DJ","lat":11.1468888889,"lng":42.72},{"iata":"AIK","name":"Aiken Municipal Airport","city":"Aiken","country":"US","lat":33.6493988037,"lng":-81.6849975586},{"iata":"AIN","name":"Wainwright Airport","city":"Wainwright","country":"US","lat":70.6380004883,"lng":-159.994995117},{"iata":"AIO","name":"Atlantic Municipal Airport","city":"Atlantic","country":"US","lat":41.40729904,"lng":-95.04689789},{"iata":"AIP","name":"Adampur Air Force Station","city":"","country":"IN","lat":31.4337997437,"lng":75.7587966919},{"iata":"AIR","name":"Aripuanã Airport","city":"Aripuanã","country":"BR","lat":-10.185556,"lng":-59.457778},{"iata":"AIS","name":"Arorae Island Airport","city":"Arorae Island","country":"KI","lat":-2.6161100864,"lng":176.8029937744},{"iata":"AIT","name":"Aitutaki Airport","city":"Aitutaki","country":"CK","lat":-18.8309001923,"lng":-159.7640075684},{"iata":"AIU","name":"Enua Airport","city":"Atiu Island","country":"CK","lat":-19.9678001404,"lng":-158.1190032959},{"iata":"AIV","name":"George Downer Airport","city":"Aliceville","country":"US","lat":33.1064987183,"lng":-88.1977996826},{"iata":"AIZ","name":"Lee C Fine Memorial Airport","city":"Kaiser Lake Ozark","country":"US","lat":38.0960006714,"lng":-92.5494995117},{"iata":"AJA","name":"Ajaccio-Napoleon Bonaparte Airport","city":"Ajaccio/Napoleon Bonaparte","country":"FR","lat":41.9235992432,"lng":8.8029203415},{"iata":"AJF","name":"Al-Jawf Domestic Airport","city":"Al-Jawf","country":"SA","lat":29.7851009369,"lng":40.0999984741},{"iata":"AJI","name":"Agri Airport","city":"Agri","country":"TR","lat":39.6545410156,"lng":43.0259780884},{"iata":"AJJ","name":"Akjoujt Airport","city":"Akjoujt","country":"MR","lat":19.7330169678,"lng":-14.3832492828},{"iata":"AJK","name":"Arak Airport","city":"Araak","country":"IR","lat":34.1380996704,"lng":49.8473014832},{"iata":"AJL","name":"Lengpui Airport","city":"Aizawl","country":"IN","lat":23.8405990601,"lng":92.6196975708},{"iata":"AJN","name":"Ouani Airport","city":"Ouani","country":"KM","lat":-12.1316995621,"lng":44.4303016663},{"iata":"AJR","name":"Arvidsjaur Airport","city":"Arvidsjaur","country":"SE","lat":65.5903015137,"lng":19.2819004059},{"iata":"AJU","name":"Santa Maria Airport","city":"Aracaju","country":"BR","lat":-10.984000206,"lng":-37.0703010559},{"iata":"AJY","name":"Mano Dayak International Airport","city":"Agadez","country":"NE","lat":16.9659996033,"lng":8.0001096725},{"iata":"AKA","name":"Ankang Airport","city":"Ankang","country":"CN","lat":32.7080993652,"lng":108.9309997559},{"iata":"AKB","name":"Atka Airport","city":"Atka","country":"US","lat":52.22029877,"lng":-174.2059937},{"iata":"AKC","name":"Akron Fulton International Airport","city":"Akron","country":"US","lat":41.0374984741,"lng":-81.4669036865},{"iata":"AKD","name":"Akola Airport","city":"","country":"IN","lat":20.6989994049,"lng":77.0586013794},{"iata":"AKE","name":"Akiéni Airport","city":"Akiéni","country":"GA","lat":-1.133333,"lng":13.9},{"iata":"AKF","name":"Kufra Airport","city":"Kufra","country":"LY","lat":24.1786994934,"lng":23.313999176},{"iata":"AKH","name":"Prince Sultan Air Base","city":"","country":"SA","lat":24.0627002716,"lng":47.5805015564},{"iata":"AKI","name":"Akiak Airport","city":"Akiak","country":"US","lat":60.9029006958,"lng":-161.231002808},{"iata":"AKJ","name":"Asahikawa Airport","city":"Asahikawa","country":"JP","lat":43.6707992554,"lng":142.4470062256},{"iata":"AKK","name":"Akhiok Airport","city":"Akhiok","country":"US","lat":56.9387016296,"lng":-154.182998657},{"iata":"AKL","name":"Auckland International Airport","city":"Auckland","country":"NZ","lat":-37.0080986023,"lng":174.7920074463},{"iata":"AKN","name":"King Salmon Airport","city":"King Salmon","country":"US","lat":58.67679977,"lng":-156.6490021},{"iata":"AKO","name":"Colorado Plains Regional Airport","city":"Akron","country":"US","lat":40.1755981445,"lng":-103.222000122},{"iata":"AKP","name":"Anaktuvuk Pass Airport","city":"Anaktuvuk Pass","country":"US","lat":68.13359833,"lng":-151.7429962},{"iata":"AKQ","name":"Menggala Airport","city":"Menggala-Sumatra Island","country":"ID","lat":-4.4894399643,"lng":105.2170028687},{"iata":"AKR","name":"Akure Airport","city":"Akure","country":"NG","lat":7.2467398643,"lng":5.3010101318},{"iata":"AKS","name":"Auki Airport","city":"Auki","country":"SB","lat":-8.7025699616,"lng":160.682006836},{"iata":"AKT","name":"RAF Akrotiri","city":"","country":"CY","lat":34.5904006958,"lng":32.9878997803},{"iata":"AKU","name":"Aksu Airport","city":"Aksu","country":"CN","lat":41.2625007629,"lng":80.2917022705},{"iata":"AKV","name":"Akulivik Airport","city":"Akulivik","country":"CA","lat":60.8185997009,"lng":-78.1485977173},{"iata":"AKW","name":"Aghajari Airport","city":"Omidiyeh","country":"IR","lat":30.7444000244,"lng":49.6772003174},{"iata":"AKX","name":"Aktobe Airport","city":"Aktyubinsk","country":"KZ","lat":50.2458000183,"lng":57.2066993713},{"iata":"AKY","name":"Sittwe Airport","city":"Sittwe","country":"MM","lat":20.1326999664,"lng":92.8725967407},{"iata":"ALA","name":"Almaty Airport","city":"Almaty","country":"KZ","lat":43.3521003723,"lng":77.0404968262},{"iata":"ALB","name":"Albany International Airport","city":"Albany","country":"US","lat":42.748298645,"lng":-73.8016967773},{"iata":"ALC","name":"Alicante International Airport","city":"Alicante","country":"ES","lat":38.2821998596,"lng":-0.5581560135},{"iata":"ALD","name":"Alerta Airport","city":"Fortaleza","country":"PE","lat":-11.6829996109,"lng":-69.3330001831},{"iata":"ALF","name":"Alta Airport","city":"Alta","country":"NO","lat":69.9760971069,"lng":23.3717002869},{"iata":"ALG","name":"Houari Boumediene Airport","city":"Algiers","country":"DZ","lat":36.6910018921,"lng":3.2154099941},{"iata":"ALH","name":"Albany Airport","city":"Albany","country":"AU","lat":-34.9432983398,"lng":117.8089981079},{"iata":"ALI","name":"Alice International Airport","city":"Alice","country":"US","lat":27.7409000397,"lng":-98.0269012451},{"iata":"ALJ","name":"Alexander Bay Airport","city":"Alexander Bay","country":"ZA","lat":-28.5750007629,"lng":16.5333003998},{"iata":"ALL","name":"Villanova D'Albenga International Airport","city":"Albenga","country":"IT","lat":44.0505981445,"lng":8.1274299622},{"iata":"ALM","name":"Alamogordo White Sands Regional Airport","city":"Alamogordo","country":"US","lat":32.8399009705,"lng":-105.9909973145},{"iata":"ALN","name":"St Louis Regional Airport","city":"Alton/St Louis","country":"US","lat":38.8903007507,"lng":-90.0459976196},{"iata":"ALO","name":"Waterloo Regional Airport","city":"Waterloo","country":"US","lat":42.5570983887,"lng":-92.4002990723},{"iata":"ALP","name":"Aleppo International Airport","city":"Aleppo","country":"SY","lat":36.1806983948,"lng":37.2243995667},{"iata":"ALQ","name":"Alegrete Novo Airport","city":"Alegrete","country":"BR","lat":-29.8127002716,"lng":-55.8933982849},{"iata":"ALR","name":"Alexandra Airport","city":"Alexandra","country":"NZ","lat":-45.2117004395,"lng":169.3730010986},{"iata":"ALS","name":"San Luis Valley Regional Bergman Field","city":"Alamosa","country":"US","lat":37.4348983765,"lng":-105.866996765},{"iata":"ALT","name":"Alenquer Airport","city":"Alenquer","country":"BR","lat":-1.916944,"lng":-54.722778},{"iata":"ALU","name":"Alula Airport","city":"Alula","country":"SO","lat":11.9582,"lng":50.748},{"iata":"ALW","name":"Walla Walla Regional Airport","city":"Walla Walla","country":"US","lat":46.09489822,"lng":-118.288002},{"iata":"ALX","name":"Thomas C Russell Field","city":"Alexander City","country":"US","lat":32.9146995544,"lng":-85.9629974365},{"iata":"ALY","name":"El Nouzha Airport","city":"Alexandria","country":"EG","lat":31.1839008331,"lng":29.9489002228},{"iata":"AMA","name":"Rick Husband Amarillo International Airport","city":"Amarillo","country":"US","lat":35.2193984985,"lng":-101.7060012817},{"iata":"AMB","name":"Ambilobe Airport","city":"","country":"MG","lat":-13.1884002686,"lng":48.9879989624},{"iata":"AMC","name":"Am Timan Airport","city":"Am Timan","country":"TD","lat":11.0340003967,"lng":20.2740001678},{"iata":"AMD","name":"Sardar Vallabhbhai Patel International Airport","city":"Ahmedabad","country":"IN","lat":23.0771999359,"lng":72.6346969604},{"iata":"AMH","name":"Arba Minch Airport","city":"","country":"ET","lat":6.0393900871,"lng":37.5904998779},{"iata":"AMI","name":"Selaparang Airport","city":"Mataram-Lombok Island","country":"ID","lat":-8.5607099533,"lng":116.095001221},{"iata":"AMJ","name":"Cirilo Queiroz Airport","city":"Almenara","country":"BR","lat":-16.18389,"lng":-40.66722},{"iata":"AMK","name":"Animas Air Park","city":"Durango","country":"US","lat":37.2032012939,"lng":-107.869003296},{"iata":"AMM","name":"Queen Alia International Airport","city":"Amman","country":"JO","lat":31.7226009369,"lng":35.9931983948},{"iata":"AMN","name":"Gratiot Community Airport","city":"Alma","country":"US","lat":43.322101593,"lng":-84.68800354},{"iata":"AMO","name":"Mao Airport","city":"Mao","country":"TD","lat":14.1456003189,"lng":15.3143997192},{"iata":"AMP","name":"Ampanihy Airport","city":"Ampanihy","country":"MG","lat":-24.6996994019,"lng":44.7341995239},{"iata":"AMQ","name":"Pattimura Airport Ambon","city":"Ambon","country":"ID","lat":-3.7102599144,"lng":128.0890045166},{"iata":"AMS","name":"Amsterdam Airport Schiphol","city":"Amsterdam","country":"NL","lat":52.3086013794,"lng":4.7638897896},{"iata":"AMT","name":"Amata Airport","city":"","country":"AU","lat":-26.1082992554,"lng":131.2070007324},{"iata":"AMU","name":"Amanab Airport","city":"Amanab","country":"PG","lat":-3.586,"lng":141.214333333},{"iata":"AMV","name":"Amderma Airport","city":"Amderma","country":"RU","lat":69.7632980347,"lng":61.5564002991},{"iata":"AMW","name":"Ames Municipal Airport","city":"Ames","country":"US","lat":41.99200058,"lng":-93.62180328},{"iata":"AMX","name":"Ammaroo Airport","city":"","country":"AU","lat":-21.7383003235,"lng":135.2420043945},{"iata":"AMZ","name":"Ardmore Airport","city":"Manurewa","country":"NZ","lat":-37.0297012329,"lng":174.9730072021},{"iata":"ANB","name":"Anniston Metropolitan Airport","city":"Anniston","country":"US","lat":33.58819962,"lng":-85.85810089},{"iata":"ANC","name":"Ted Stevens Anchorage International Airport","city":"Anchorage","country":"US","lat":61.1744003296,"lng":-149.9960021973},{"iata":"AND","name":"Anderson Regional Airport","city":"Anderson","country":"US","lat":34.4945983887,"lng":-82.7093963623},{"iata":"ANE","name":"Angers-Loire Airport","city":"Angers/Marce","country":"FR","lat":47.5602989197,"lng":-0.3122220039},{"iata":"ANF","name":"Cerro Moreno Airport","city":"Antofagasta","country":"CL","lat":-23.4444999695,"lng":-70.445098877},{"iata":"ANG","name":"Angouleme-Brie-Champniers Airport","city":"Angouleme/Brie/Champniers","country":"FR","lat":45.7291984558,"lng":0.2214560062},{"iata":"ANI","name":"Aniak Airport","city":"Aniak","country":"US","lat":61.5816001892,"lng":-159.5429992676},{"iata":"ANJ","name":"Zanaga Airport","city":"Zanaga","country":"CG","lat":-2.8499999046,"lng":13.8170003891},{"iata":"ANK","name":"Etimesgut Air Base","city":"Ankara","country":"TR","lat":39.949798584,"lng":32.6885986328},{"iata":"ANM","name":"Antsirabato Airport","city":"","country":"MG","lat":-14.9994001389,"lng":50.3202018738},{"iata":"ANN","name":"Annette Island Airport","city":"Annette","country":"US","lat":55.0424003601,"lng":-131.5720062256},{"iata":"ANO","name":"Angoche Airport","city":"Angoche","country":"MZ","lat":-16.1818695068,"lng":39.9452171326},{"iata":"ANP","name":"Lee Airport","city":"Annapolis","country":"US","lat":38.9429016113,"lng":-76.568397522},{"iata":"ANQ","name":"Tri State Steuben County Airport","city":"Angola","country":"US","lat":41.6397018433,"lng":-85.0835037231},{"iata":"ANR","name":"Antwerp International Airport (Deurne)","city":"Antwerp","country":"BE","lat":51.1893997192,"lng":4.4602799416},{"iata":"ANS","name":"Andahuaylas Airport","city":"Andahuaylas","country":"PE","lat":-13.7063999176,"lng":-73.350402832},{"iata":"ANU","name":"V.C. Bird International Airport","city":"St. George","country":"AG","lat":17.1367,"lng":-61.792702},{"iata":"ANV","name":"Anvik Airport","city":"Anvik","country":"US","lat":62.64670181,"lng":-160.1909943},{"iata":"ANW","name":"Ainsworth Municipal Airport","city":"Ainsworth","country":"US","lat":42.5792007446,"lng":-99.9929962158},{"iata":"ANX","name":"Andoya Airport","city":"Andenes","country":"NO","lat":69.2925033569,"lng":16.1441993713},{"iata":"ANY","name":"Anthony Municipal Airport","city":"Anthony","country":"US","lat":37.1585006714,"lng":-98.0795974731},{"iata":"AOC","name":"Altenburg-Nobitz Airport","city":"Altenburg","country":"DE","lat":50.9819450378,"lng":12.5063886642},{"iata":"AOE","name":"Anadolu University Airport","city":"Eskisehir","country":"TR","lat":39.8098983765,"lng":30.5193996429},{"iata":"AOG","name":"Anshan Air Base","city":"Anshan","country":"CN","lat":41.1053009033,"lng":122.8539962769},{"iata":"AOH","name":"Lima Allen County Airport","city":"Lima","country":"US","lat":40.7069015503,"lng":-84.0267028809},{"iata":"AOI","name":"Ancona / Falconara Airport","city":"Ancona","country":"IT","lat":43.6162986755,"lng":13.3622999191},{"iata":"AOJ","name":"Aomori Airport","city":"Aomori","country":"JP","lat":40.7346992493,"lng":140.6909942627},{"iata":"AOK","name":"Karpathos Airport","city":"Karpathos Island","country":"GR","lat":35.4213981628,"lng":27.1459999084},{"iata":"AOL","name":"Paso De Los Libres Airport","city":"Paso de los Libres","country":"AR","lat":-29.6894,"lng":-57.1521},{"iata":"AOM","name":"Adam Airport","city":"Adam","country":"OM","lat":22.493056,"lng":57.381944},{"iata":"AOO","name":"Altoona Blair County Airport","city":"Altoona","country":"US","lat":40.29639816,"lng":-78.31999969},{"iata":"AOP","name":"Alferez FAP Alfredo Vladimir Sara Bauer Airport","city":"Andoas","country":"PE","lat":-2.7961299419,"lng":-76.4665985107},{"iata":"AOR","name":"Sultan Abdul Halim Airport","city":"Alor Satar","country":"MY","lat":6.1896700859,"lng":100.3980026245},{"iata":"AOT","name":"Aosta Airport","city":"Aosta","country":"IT","lat":45.7384986877,"lng":7.3687200546},{"iata":"AOU","name":"Attopeu Airport","city":"Attopeu","country":"LA","lat":14.814715357,"lng":106.821699142},{"iata":"AOY","name":"Asaloyeh Airport","city":"Asaloyeh","country":"IR","lat":27.4813995361,"lng":52.6155014038},{"iata":"APA","name":"Centennial Airport","city":"Denver","country":"US","lat":39.57009888,"lng":-104.848999},{"iata":"APB","name":"Apolo Airport","city":"Apolo","country":"BO","lat":-14.7356004715,"lng":-68.4119033813},{"iata":"APC","name":"Napa County Airport","city":"Napa","country":"US","lat":38.2131996155,"lng":-122.28099823},{"iata":"APE","name":"San Juan Aposento Airport","city":"San Juan Aposento","country":"PE","lat":-15.3538999557,"lng":-75.167098999},{"iata":"APF","name":"Naples Municipal Airport","city":"Naples","country":"US","lat":26.1525993347,"lng":-81.7752990723},{"iata":"APG","name":"Phillips Army Air Field","city":"Aberdeen Proving Grounds(Aberdeen)","country":"US","lat":39.46620178,"lng":-76.16880035},{"iata":"APH","name":"A P Hill Aaf (Fort A P Hill) Airport","city":"Fort A. P. Hill","country":"US","lat":38.06890106,"lng":-77.31829834},{"iata":"API","name":"Gomez Nino Apiay Air Base","city":"Apiay","country":"CO","lat":4.07607,"lng":-73.5627},{"iata":"APJ","name":"Ali Pulan Airport","city":"Burang","country":"CN","lat":30.390976,"lng":81.138039},{"iata":"APK","name":"Apataki Airport","city":"Apataki","country":"PF","lat":-15.5735998154,"lng":-146.4149932861},{"iata":"APL","name":"Nampula Airport","city":"Nampula","country":"MZ","lat":-15.1056003571,"lng":39.2817993164},{"iata":"APN","name":"Alpena County Regional Airport","city":"Alpena","country":"US","lat":45.0780983,"lng":-83.56030273},{"iata":"APO","name":"Antonio Roldan Betancourt Airport","city":"Carepa","country":"CO","lat":7.81196,"lng":-76.7164},{"iata":"APQ","name":"Arapiraca Airport","city":"Arapiraca","country":"BR","lat":-9.7753601074,"lng":-36.6291999817},{"iata":"APS","name":"Anapolis Airport","city":"Anapolis","country":"BR","lat":-16.3623008728,"lng":-48.9271011353},{"iata":"APT","name":"Marion County Brown Field","city":"Jasper","country":"US","lat":35.0606994629,"lng":-85.5852966309},{"iata":"APU","name":"Apucarana Airport","city":"Apucarana","country":"BR","lat":-23.609500885,"lng":-51.3844985962},{"iata":"APV","name":"Apple Valley Airport","city":"Apple Valley","country":"US","lat":34.5752983093,"lng":-117.185997009},{"iata":"APW","name":"Faleolo International Airport","city":"Apia","country":"WS","lat":-13.8299999237,"lng":-172.0079956055},{"iata":"APX","name":"Arapongas Airport","city":"Arapongas","country":"BR","lat":-23.3528995514,"lng":-51.4916992188},{"iata":"APY","name":"Alto Parnaiba Airport","city":"Alto Parnaiba","country":"BR","lat":-9.0836105347,"lng":-45.9505577087},{"iata":"APZ","name":"Zapala Airport","city":"Zapala","country":"AR","lat":-38.9754981995,"lng":-70.1136016846},{"iata":"AQA","name":"Araraquara Airport","city":"Araraquara","country":"BR","lat":-21.8120002747,"lng":-48.1329994202},{"iata":"AQB","name":"Santa Cruz del Quiche Airport","city":"Santa Cruz del Quiche","country":"GT","lat":15.0122003555,"lng":-91.1505966187},{"iata":"AQG","name":"Anqing Airport","city":"Anqing","country":"CN","lat":30.5821990967,"lng":117.0500030518},{"iata":"AQI","name":"Hafr Al Batin Airport","city":"Qaisumah","country":"SA","lat":28.3351993561,"lng":46.1250991821},{"iata":"AQJ","name":"Aqaba King Hussein International Airport","city":"Aqaba","country":"JO","lat":29.6116008759,"lng":35.0181007385},{"iata":"AQM","name":"Nova Vida Airport","city":"Ariquemes","country":"BR","lat":-10.1780557632,"lng":-62.8255577087},{"iata":"AQP","name":"Rodriguez Ballon International Airport","city":"Arequipa","country":"PE","lat":-16.3411006927,"lng":-71.5830993652},{"iata":"ARA","name":"Acadiana Regional Airport","city":"New Iberia","country":"US","lat":30.0377998352,"lng":-91.8839035034},{"iata":"ARB","name":"Ann Arbor Municipal Airport","city":"Ann Arbor","country":"US","lat":42.2229995728,"lng":-83.7455978394},{"iata":"ARC","name":"Arctic Village Airport","city":"Arctic Village","country":"US","lat":68.1147003174,"lng":-145.578994751},{"iata":"ARD","name":"Mali Airport","city":"Alor Island","country":"ID","lat":-8.1323404312,"lng":124.5970001221},{"iata":"ARE","name":"Antonio Nery Juarbe Pol Airport","city":"Arecibo","country":"PR","lat":18.4500007629,"lng":-66.6753005981},{"iata":"ARG","name":"Walnut Ridge Regional Airport","city":"Walnut Ridge","country":"US","lat":36.1246667,"lng":-90.9251111},{"iata":"ARH","name":"Talagi Airport","city":"Archangelsk","country":"RU","lat":64.6003036499,"lng":40.7167015076},{"iata":"ARI","name":"Chacalluta Airport","city":"Arica","country":"CL","lat":-18.3484992981,"lng":-70.3386993408},{"iata":"ARJ","name":"Arso Airport","city":"Arso-Papua Island","country":"ID","lat":-2.9333329201,"lng":140.7833404541},{"iata":"ARK","name":"Arusha Airport","city":"Arusha","country":"TZ","lat":-3.3677899837,"lng":36.6333007813},{"iata":"ARL","name":"Arly Airport","city":"Arly","country":"BF","lat":11.5970001221,"lng":1.4830000401},{"iata":"ARM","name":"Armidale Airport","city":"Armidale","country":"AU","lat":-30.5280990601,"lng":151.617004395},{"iata":"ARN","name":"Stockholm-Arlanda Airport","city":"Stockholm","country":"SE","lat":59.6519012451,"lng":17.9186000824},{"iata":"ARR","name":"D. Casimiro Szlapelis Airport","city":"Alto Rio Senguerr","country":"AR","lat":-45.0135993958,"lng":-70.8122024536},{"iata":"ARS","name":"Estancia das Cascatas Airport","city":"Aragarcas","country":"BR","lat":-15.8966999054,"lng":-52.0956001282},{"iata":"ART","name":"Watertown International Airport","city":"Watertown","country":"US","lat":43.9919013977,"lng":-76.021697998},{"iata":"ARU","name":"Aracatuba Airport","city":"Aracatuba","country":"BR","lat":-21.1413002014,"lng":-50.4247016907},{"iata":"ARV","name":"Lakeland-Noble F. Lee Memorial field","city":"Minocqua-Woodruff","country":"US","lat":45.92789841,"lng":-89.73090363},{"iata":"ARW","name":"Arad International Airport","city":"Arad","country":"RO","lat":46.1766014099,"lng":21.2619991302},{"iata":"ARY","name":"Ararat Airport","city":"","country":"AU","lat":-37.3093986511,"lng":142.9889984131},{"iata":"ARZ","name":"N'zeto Airport","city":"N'zeto","country":"AO","lat":-7.2594399452,"lng":12.8631000519},{"iata":"ASA","name":"Assab International Airport","city":"Asab","country":"ER","lat":13.0718002319,"lng":42.6450004578},{"iata":"ASB","name":"Ashgabat Airport","city":"Ashgabat","country":"TM","lat":37.9868011475,"lng":58.361000061},{"iata":"ASC","name":"Ascencion De Guarayos Airport","city":"Ascension de Guarayos","country":"BO","lat":-15.9302997589,"lng":-63.1567001343},{"iata":"ASD","name":"Andros Town Airport","city":"","country":"BS","lat":24.6979007721,"lng":-77.7956008911},{"iata":"ASE","name":"Aspen-Pitkin Co/Sardy Field","city":"Aspen","country":"US","lat":39.22320175,"lng":-106.8690033},{"iata":"ASF","name":"Astrakhan Airport","city":"Astrakhan","country":"RU","lat":46.2832984924,"lng":48.0063018799},{"iata":"ASG","name":"Ashburton Aerodrome","city":"","country":"NZ","lat":-43.903301239,"lng":171.7969970703},{"iata":"ASH","name":"Boire Field","city":"Nashua","country":"US","lat":42.7817001343,"lng":-71.5148010254},{"iata":"ASI","name":"RAF Ascension Island","city":"Ascension Island","country":"SH","lat":-7.9696002007,"lng":-14.393699646},{"iata":"ASJ","name":"Amami Airport","city":"Amami","country":"JP","lat":28.4305992126,"lng":129.7129974365},{"iata":"ASK","name":"Yamoussoukro Airport","city":"Yamoussoukro","country":"CI","lat":6.9031701088,"lng":-5.3655800819},{"iata":"ASL","name":"Harrison County Airport","city":"Marshall","country":"US","lat":32.5205001831,"lng":-94.307800293},{"iata":"ASM","name":"Asmara International Airport","city":"Asmara","country":"ER","lat":15.2918996811,"lng":38.9107017517},{"iata":"ASN","name":"Talladega Municipal Airport","city":"Talladega","country":"US","lat":33.5699005127,"lng":-86.0509033203},{"iata":"ASO","name":"Asosa Airport","city":"Asosa","country":"ET","lat":10.0185003281,"lng":34.5862998962},{"iata":"ASP","name":"Alice Springs Airport","city":"Alice Springs","country":"AU","lat":-23.8066997528,"lng":133.9019927979},{"iata":"ASQ","name":"Austin Airport","city":"Austin","country":"US","lat":39.4679985046,"lng":-117.194999695},{"iata":"ASR","name":"Kayseri Erkilet Airport","city":"Kayseri","country":"TR","lat":38.770401001,"lng":35.4953994751},{"iata":"AST","name":"Astoria Regional Airport","city":"Astoria","country":"US","lat":46.158000946,"lng":-123.878997803},{"iata":"ASU","name":"Silvio Pettirossi International Airport","city":"Asuncion","country":"PY","lat":-25.2399997711,"lng":-57.5200004578},{"iata":"ASV","name":"Amboseli Airport","city":"Amboseli National Park","country":"KE","lat":-2.6450500488,"lng":37.2531013489},{"iata":"ASW","name":"Aswan International Airport","city":"Aswan","country":"EG","lat":23.9643993378,"lng":32.8199996948},{"iata":"ASX","name":"John F Kennedy Memorial Airport","city":"Ashland","country":"US","lat":46.54850006,"lng":-90.91899872},{"iata":"ASY","name":"Ashley Municipal Airport","city":"Ashley","country":"US","lat":46.0238990784,"lng":-99.3526000977},{"iata":"ATA","name":"Comandante FAP German Arias Graziani Airport","city":"Anta","country":"PE","lat":-9.3474397659,"lng":-77.5983963013},{"iata":"ATB","name":"Atbara Airport","city":"Atbara","country":"SD","lat":17.7103443146,"lng":34.05701828},{"iata":"ATC","name":"Arthur's Town Airport","city":"Arthur's Town","country":"BS","lat":24.6294002533,"lng":-75.6737976074},{"iata":"ATD","name":"Uru Harbour Airport","city":"Atoifi","country":"SB","lat":-8.8733301163,"lng":161.0110015869},{"iata":"ATE","name":"Antlers Municipal Airport","city":"Antlers","country":"US","lat":34.1926002502,"lng":-95.6499023438},{"iata":"ATF","name":"Chachoan Airport","city":"Ambato","country":"EC","lat":-1.2120699883,"lng":-78.5746002197},{"iata":"ATH","name":"Eleftherios Venizelos International Airport","city":"Athens","country":"GR","lat":37.9364013672,"lng":23.9444999695},{"iata":"ATI","name":"Artigas International Airport","city":"Artigas","country":"UY","lat":-30.4006996155,"lng":-56.507900238},{"iata":"ATJ","name":"Antsirabe Airport","city":"Antsirabe","country":"MG","lat":-19.8392214824,"lng":47.0637130737},{"iata":"ATK","name":"Atqasuk Edward Burnell Sr Memorial Airport","city":"Atqasuk","country":"US","lat":70.467300415,"lng":-157.4360046387},{"iata":"ATL","name":"Hartsfield Jackson Atlanta International Airport","city":"Atlanta","country":"US","lat":33.6366996765,"lng":-84.4281005859},{"iata":"ATM","name":"Altamira Airport","city":"Altamira","country":"BR","lat":-3.2539100647,"lng":-52.2540016174},{"iata":"ATO","name":"Ohio University Snyder Field","city":"Athens/Albany","country":"US","lat":39.2109985352,"lng":-82.2313995361},{"iata":"ATP","name":"Aitape Airport","city":"Aitape","country":"PG","lat":-3.1436111111,"lng":142.346805556},{"iata":"ATQ","name":"Sri Guru Ram Dass Jee International Airport Amritsar","city":"Amritsar","country":"IN","lat":31.7096004486,"lng":74.7973022461},{"iata":"ATR","name":"Atar International Airport","city":"Atar","country":"MR","lat":20.5067996979,"lng":-13.0431995392},{"iata":"ATS","name":"Artesia Municipal Airport","city":"Artesia","country":"US","lat":32.8525009155,"lng":-104.468002319},{"iata":"ATU","name":"Casco Cove Coast Guard Station","city":"Attu","country":"US","lat":52.83254166,"lng":173.17555416},{"iata":"ATV","name":"Ati Airport","city":"Ati","country":"TD","lat":13.2389001846,"lng":18.3132991791},{"iata":"ATW","name":"Appleton International Airport","city":"Appleton","country":"US","lat":44.2580986023,"lng":-88.5190963745},{"iata":"ATY","name":"Watertown Regional Airport","city":"Watertown","country":"US","lat":44.91400146,"lng":-97.15470123},{"iata":"ATZ","name":"Assiut International Airport","city":"Assiut","country":"EG","lat":27.0464992523,"lng":31.0119991302},{"iata":"AUA","name":"Queen Beatrix International Airport","city":"Oranjestad","country":"AW","lat":12.5013999939,"lng":-70.0151977539},{"iata":"AUC","name":"Santiago Perez Airport","city":"Arauca","country":"CO","lat":7.06888,"lng":-70.7369},{"iata":"AUD","name":"Augustus Downs Airport","city":"","country":"AU","lat":-18.5149993896,"lng":139.8780059814},{"iata":"AUF","name":"Auxerre-Branches Airport","city":"Auxerre/Branches","country":"FR","lat":47.8502006531,"lng":3.49710989},{"iata":"AUG","name":"Augusta State Airport","city":"Augusta","country":"US","lat":44.3205986023,"lng":-69.7973022461},{"iata":"AUH","name":"Abu Dhabi International Airport","city":"Abu Dhabi","country":"AE","lat":24.4330005646,"lng":54.6511001587},{"iata":"AUJ","name":"Ambunti Airport","city":"Ambunti","country":"PG","lat":-4.2156666667,"lng":142.823166667},{"iata":"AUK","name":"Alakanuk Airport","city":"Alakanuk","country":"US","lat":62.6800422668,"lng":-164.659927368},{"iata":"AUM","name":"Austin Municipal Airport","city":"Austin","country":"US","lat":43.66500092,"lng":-92.93340302},{"iata":"AUN","name":"Auburn Municipal Airport","city":"Auburn","country":"US","lat":38.95479965,"lng":-121.0820007},{"iata":"AUO","name":"Auburn Opelika Robert G. Pitts Airport","city":"Auburn","country":"US","lat":32.61510086,"lng":-85.43399811},{"iata":"AUQ","name":"Hiva Oa-Atuona Airport","city":"","country":"PF","lat":-9.7687902451,"lng":-139.0110015869},{"iata":"AUR","name":"Aurillac Airport","city":"Aurillac","country":"FR","lat":44.8913993835,"lng":2.4219400883},{"iata":"AUS","name":"Austin Bergstrom International Airport","city":"Austin","country":"US","lat":30.1944999695,"lng":-97.6698989868},{"iata":"AUT","name":"Atauro Airport","city":"Atauro","country":"TL","lat":-8.2105197906,"lng":125.6159973145},{"iata":"AUU","name":"Aurukun Airport","city":"","country":"AU","lat":-13.3538999557,"lng":141.720993042},{"iata":"AUW","name":"Wausau Downtown Airport","city":"Wausau","country":"US","lat":44.9262008667,"lng":-89.6266021729},{"iata":"AUX","name":"Araguaina Airport","city":"Araguaina","country":"BR","lat":-7.2278699875,"lng":-48.2405014038},{"iata":"AUY","name":"Anelghowhat Airport","city":"Anelghowhat","country":"VU","lat":-20.2492008209,"lng":169.7709960938},{"iata":"AUZ","name":"Aurora Municipal Airport","city":"Chicago/Aurora","country":"US","lat":41.771900177,"lng":-88.4757003784},{"iata":"AVA","name":"Anshun Huangguoshu Airport","city":"Anshun","country":"CN","lat":26.2605555556,"lng":105.873333333},{"iata":"AVB","name":"Aviano Air Base","city":"Aviano","country":"IT","lat":46.0318984985,"lng":12.5965003967},{"iata":"AVG","name":"Auvergne Airport","city":"","country":"AU","lat":-15.6999998093,"lng":130},{"iata":"AVI","name":"Maximo Gomez Airport","city":"Ciego de Avila","country":"CU","lat":22.0270996094,"lng":-78.7895965576},{"iata":"AVK","name":"Arvaikheer Airport","city":"Arvaikheer","country":"MN","lat":46.2503013611,"lng":102.8020019531},{"iata":"AVL","name":"Asheville Regional Airport","city":"Asheville","country":"US","lat":35.4361991882,"lng":-82.5418014526},{"iata":"AVN","name":"Avignon-Caumont Airport","city":"Avignon/Caumont","country":"FR","lat":43.9072990417,"lng":4.9018301964},{"iata":"AVO","name":"Avon Park Executive Airport","city":"Avon Park","country":"US","lat":27.59119987,"lng":-81.52780151},{"iata":"AVP","name":"Wilkes Barre Scranton International Airport","city":"Wilkes-Barre/Scranton","country":"US","lat":41.3385009766,"lng":-75.7233963013},{"iata":"AVR","name":"Alverca Airport","city":"Alverca","country":"PT","lat":38.885362,"lng":-9.028311},{"iata":"AVU","name":"Avu Avu Airport","city":"","country":"SB","lat":-9.8683333333,"lng":160.410555556},{"iata":"AVV","name":"Avalon Airport","city":"Melbourne","country":"AU","lat":-38.0393981934,"lng":144.468994141},{"iata":"AVW","name":"Marana Regional Airport","city":"Tucson","country":"US","lat":32.4095993042,"lng":-111.218002319},{"iata":"AVX","name":"Catalina Airport","city":"Avalon","country":"US","lat":33.4048995972,"lng":-118.4160003662},{"iata":"AWA","name":"Awassa Airport","city":"Awassa","country":"ET","lat":7.0669999123,"lng":38.5},{"iata":"AWB","name":"Awaba Airport","city":"Awaba","country":"PG","lat":-8.0061101914,"lng":142.748352051},{"iata":"AWD","name":"Aniwa Airport","city":"Aniwa","country":"VU","lat":-19.2399997711,"lng":169.6049957275},{"iata":"AWK","name":"Wake Island Airfield","city":"Wake Island","country":"UM","lat":19.2821006775,"lng":166.6360015869},{"iata":"AWM","name":"West Memphis Municipal Airport","city":"West Memphis","country":"US","lat":35.1351013184,"lng":-90.2343978882},{"iata":"AWN","name":"Alton Downs Airport","city":"","country":"AU","lat":-26.5333003998,"lng":139.266998291},{"iata":"AWP","name":"Austral Downs Airport","city":"","country":"AU","lat":-20.5,"lng":137.75},{"iata":"AWZ","name":"Ahwaz Airport","city":"Ahwaz","country":"IR","lat":31.3374004364,"lng":48.7620010376},{"iata":"AXA","name":"Wallblake Airport","city":"The Valley","country":"AI","lat":18.2047996521,"lng":-63.0550994873},{"iata":"AXC","name":"Aramac Airport","city":"","country":"AU","lat":-22.9666996002,"lng":145.2420043945},{"iata":"AXD","name":"Dimokritos Airport","city":"Alexandroupolis","country":"GR","lat":40.8558998108,"lng":25.9563007355},{"iata":"AXE","name":"Xanxere Airport","city":"Xanxere","country":"BR","lat":-26.8755569458,"lng":-52.3730545044},{"iata":"AXF","name":"Alxa Left Banner Bayanhot Airport","city":"Bayanhot","country":"CN","lat":38.74831,"lng":105.58858},{"iata":"AXG","name":"Algona Municipal Airport","city":"Algona","country":"US","lat":43.0778999329,"lng":-94.2720031738},{"iata":"AXJ","name":"Amakusa Airport","city":"","country":"JP","lat":32.4824981689,"lng":130.158996582},{"iata":"AXK","name":"Ataq Airport","city":"","country":"YE","lat":14.5513000488,"lng":46.8261985779},{"iata":"AXL","name":"Alexandria Homestead Airport","city":"","country":"AU","lat":-19.0601997375,"lng":136.7100067139},{"iata":"AXM","name":"El Eden Airport","city":"Armenia","country":"CO","lat":4.45278,"lng":-75.7664},{"iata":"AXN","name":"Chandler Field","city":"Alexandria","country":"US","lat":45.8662986755,"lng":-95.3946990967},{"iata":"AXP","name":"Spring Point Airport","city":"Spring Point","country":"BS","lat":22.4417991638,"lng":-73.9709014893},{"iata":"AXR","name":"Arutua Airport","city":"","country":"PF","lat":-15.2482995987,"lng":-146.6170043945},{"iata":"AXS","name":"Altus Quartz Mountain Regional Airport","city":"Altus","country":"US","lat":34.6963996887,"lng":-99.3403015137},{"iata":"AXT","name":"Akita Airport","city":"Akita","country":"JP","lat":39.6156005859,"lng":140.2189941406},{"iata":"AXU","name":"Axum Airport","city":"","country":"ET","lat":14.1468000412,"lng":38.7728004456},{"iata":"AXV","name":"Neil Armstrong Airport","city":"Wapakoneta","country":"US","lat":40.49340057,"lng":-84.29889679},{"iata":"AXX","name":"Angel Fire Airport","city":"Angel Fire","country":"US","lat":36.422000885,"lng":-105.290000916},{"iata":"AYG","name":"Yaguara Airport","city":"San Vicente Del Caguan","country":"CO","lat":1.54417,"lng":-73.9333},{"iata":"AYJ","name":"Ayodhya Airport","city":"Ayodhya","country":"IN","lat":26.748034,"lng":82.150781},{"iata":"AYK","name":"Arkalyk North Airport","city":"Arkalyk","country":"KZ","lat":50.3185997009,"lng":66.952796936},{"iata":"AYL","name":"Anthony Lagoon Airport","city":"","country":"AU","lat":-18.018079031,"lng":135.535068512},{"iata":"AYN","name":"Anyang Airport","city":"Anyang","country":"CN","lat":36.1338996887,"lng":114.34400177},{"iata":"AYO","name":"Juan De Ayolas Airport","city":"Ayolas","country":"PY","lat":-27.3700008392,"lng":-56.8499984741},{"iata":"AYP","name":"Coronel FAP Alfredo Mendivil Duarte Airport","city":"Ayacucho","country":"PE","lat":-13.154800415,"lng":-74.2043991089},{"iata":"AYQ","name":"Ayers Rock Connellan Airport","city":"Ayers Rock","country":"AU","lat":-25.1861000061,"lng":130.9759979248},{"iata":"AYR","name":"Ayr Airport","city":"","country":"AU","lat":-19.584400177,"lng":147.328994751},{"iata":"AYS","name":"Waycross Ware County Airport","city":"Waycross","country":"US","lat":31.2490997314,"lng":-82.3955001831},{"iata":"AYT","name":"Antalya International Airport","city":"Antalya","country":"TR","lat":36.8987007141,"lng":30.8005008698},{"iata":"AYU","name":"Aiyura Airport","city":"Aiyura Valley","country":"PG","lat":-6.3380555556,"lng":145.904166667},{"iata":"AYX","name":"Teniente General Gerardo Perez Pinedo Airport","city":"Atalaya","country":"PE","lat":-10.7291002274,"lng":-73.7665023804},{"iata":"AZA","name":"Phoenix-Mesa-Gateway Airport","city":"Phoenix","country":"US","lat":33.30780029,"lng":-111.6549988},{"iata":"AZD","name":"Shahid Sadooghi Airport","city":"Yazd","country":"IR","lat":31.9048995972,"lng":54.2765007019},{"iata":"AZH","name":"Azamgarh Airport","city":"Azamgarh","country":"IN","lat":26.153333,"lng":83.118333},{"iata":"AZI","name":"Al Bateen Executive Airport","city":"","country":"AE","lat":24.4283008575,"lng":54.4580993652},{"iata":"AZL","name":"Fazenda Tucunare Airport","city":"Sapezal","country":"BR","lat":-13.4655278136,"lng":-58.8669347763},{"iata":"AZN","name":"Andijan Airport","city":"Andijan","country":"UZ","lat":40.7276992798,"lng":72.2939987183},{"iata":"AZO","name":"Kalamazoo Battle Creek International Airport","city":"Kalamazoo","country":"US","lat":42.2349014282,"lng":-85.5521011353},{"iata":"AZP","name":"Atizapan De Zaragoza Airport","city":"","country":"MX","lat":19.5748004913,"lng":-99.2888031006},{"iata":"AZR","name":"Touat Cheikh Sidi Mohamed Belkebir Airport","city":"","country":"DZ","lat":27.837600708,"lng":-0.1864140034},{"iata":"AZS","name":"Samana El Catey International Airport","city":"Samana","country":"DO","lat":19.2670001984,"lng":-69.7419967651},{"iata":"AZZ","name":"Ambriz Airport","city":"Ambriz","country":"AO","lat":-7.8622198105,"lng":13.1161003113},{"iata":"BAA","name":"Bialla Airport","city":"Bialla","country":"PG","lat":-5.329445,"lng":151.006128},{"iata":"BAB","name":"Beale Air Force Base","city":"Marysville","country":"US","lat":39.136100769,"lng":-121.43699646},{"iata":"BAD","name":"Barksdale Air Force Base","city":"Bossier City","country":"US","lat":32.5018005371,"lng":-93.6626968384},{"iata":"BAE","name":"Barcelonnette - Saint-Pons Airport","city":"Le Castellet","country":"FR","lat":44.3883018494,"lng":6.6102800369},{"iata":"BAF","name":"Westfield-Barnes Regional Airport","city":"Westfield/Springfield","country":"US","lat":42.1577987671,"lng":-72.7155990601},{"iata":"BAG","name":"Loakan Airport","city":"Baguio City","country":"PH","lat":16.3750991821,"lng":120.6200027466},{"iata":"BAH","name":"Bahrain International Airport","city":"Manama","country":"BH","lat":26.2707996368,"lng":50.6335983276},{"iata":"BAI","name":"Buenos Aires Airport","city":"Punta Arenas","country":"CR","lat":9.1636104584,"lng":-83.3299026489},{"iata":"BAL","name":"Batman Airport","city":"Batman","country":"TR","lat":37.9290008545,"lng":41.1166000366},{"iata":"BAM","name":"Battle Mountain Airport","city":"Battle Mountain","country":"US","lat":40.5989990234,"lng":-116.8740005493},{"iata":"BAN","name":"Basongo Airport","city":"Basongo","country":"CD","lat":-4.3169999123,"lng":20.4330005646},{"iata":"BAO","name":"Udorn Air Base","city":"Ban Mak Khaen","country":"TH","lat":17.3829994202,"lng":102.8000030518},{"iata":"BAQ","name":"Ernesto Cortissoz International Airport","city":"Barranquilla","country":"CO","lat":10.8896,"lng":-74.7808},{"iata":"BAR","name":"Qionghai Boao Airport","city":"Qionghai","country":"CN","lat":19.140556,"lng":110.458889},{"iata":"BAS","name":"Ballalae Airport","city":"Ballalae","country":"SB","lat":-6.990745,"lng":155.886656},{"iata":"BAT","name":"Chafei Amsei Airport","city":"Barretos","country":"BR","lat":-20.5844993591,"lng":-48.5941009521},{"iata":"BAU","name":"Bauru Airport","city":"Bauru","country":"BR","lat":-22.3449993134,"lng":-49.0537986755},{"iata":"BAV","name":"Baotou Airport","city":"Baotou","country":"CN","lat":40.5600013733,"lng":109.9970016479},{"iata":"BAX","name":"Barnaul Airport","city":"Barnaul","country":"RU","lat":53.3638000488,"lng":83.5384979248},{"iata":"BAY","name":"Tautii Magheraus Airport","city":"Baia Mare","country":"RO","lat":47.6584014893,"lng":23.4699993134},{"iata":"BAZ","name":"Barcelos Airport","city":"Barcelos","country":"BR","lat":-0.9812920094,"lng":-62.9196014404},{"iata":"BBA","name":"Balmaceda Airport","city":"Balmaceda","country":"CL","lat":-45.9160995483,"lng":-71.6894989014},{"iata":"BBB","name":"Benson Municipal Airport","city":"Benson","country":"US","lat":45.3319015503,"lng":-95.6505966187},{"iata":"BBC","name":"Bay City Municipal Airport","city":"Bay City","country":"US","lat":28.9733009338,"lng":-95.8635025024},{"iata":"BBD","name":"Curtis Field","city":"Brady","country":"US","lat":31.1793003082,"lng":-99.3238983154},{"iata":"BBE","name":"Big Bell Airport","city":"Big Bell","country":"AU","lat":-27.3285999298,"lng":117.672996521},{"iata":"BBG","name":"Butaritari Atoll Airport","city":"Butaritari Atoll","country":"KI","lat":3.0858299732,"lng":172.8110046387},{"iata":"BBH","name":"Barth Airport","city":"","country":"DE","lat":54.3375015259,"lng":12.6997003555},{"iata":"BBI","name":"Biju Patnaik Airport","city":"Bhubaneswar","country":"IN","lat":20.2444000244,"lng":85.8178024292},{"iata":"BBJ","name":"Bitburg Airport","city":"Bitburg","country":"DE","lat":49.9452781677,"lng":6.5650000572},{"iata":"BBK","name":"Kasane Airport","city":"Kasane","country":"BW","lat":-17.8328990936,"lng":25.162399292},{"iata":"BBL","name":"Ballera Airport","city":"","country":"AU","lat":-27.4083003998,"lng":141.8079986572},{"iata":"BBM","name":"Battambang Airport","city":"Battambang","country":"KH","lat":13.0956001282,"lng":103.2239990234},{"iata":"BBN","name":"Bario Airport","city":"Bario","country":"MY","lat":3.7338900566,"lng":115.4789962769},{"iata":"BBO","name":"Berbera Airport","city":"Berbera","country":"SO","lat":10.3892002106,"lng":44.9411010742},{"iata":"BBP","name":"Bembridge Airport","city":"Bembridge","country":"GB","lat":50.6781005859,"lng":-1.1094399691},{"iata":"BBQ","name":"Codrington Airport","city":"Codrington","country":"AG","lat":17.635799,"lng":-61.828602},{"iata":"BBR","name":"Baillif Airport","city":"Basse Terre","country":"GP","lat":16.013299942,"lng":-61.7421989441},{"iata":"BBS","name":"Blackbushe Airport","city":"Yateley","country":"GB","lat":51.3238983154,"lng":-0.8475000262},{"iata":"BBT","name":"Berberati Airport","city":"Berberati","country":"CF","lat":4.2215800285,"lng":15.7863998413},{"iata":"BBU","name":"Baneasa International Airport","city":"Bucharest","country":"RO","lat":44.503200531,"lng":26.1021003723},{"iata":"BBV","name":"Nero-Mer Airport","city":"Grand-Bereby","country":"CI","lat":4.6434130669,"lng":-6.9239616394},{"iata":"BBW","name":"Broken Bow Municipal Airport","city":"Broken Bow","country":"US","lat":41.4365005493,"lng":-99.6421966553},{"iata":"BBX","name":"Wings Field","city":"Philadelphia","country":"US","lat":40.1375007629,"lng":-75.2650985718},{"iata":"BBY","name":"Bambari Airport","city":"Bambari","country":"CF","lat":5.8469400406,"lng":20.6474990845},{"iata":"BBZ","name":"Zambezi Airport","city":"Zambezi","country":"ZM","lat":-13.5361003876,"lng":23.108499527},{"iata":"BCA","name":"Gustavo Rizo Airport","city":"Baracoa","country":"CU","lat":20.3652992249,"lng":-74.5062026978},{"iata":"BCB","name":"Virginia Tech Montgomery Executive Airport","city":"Blacksburg","country":"US","lat":37.2075996399,"lng":-80.4077987671},{"iata":"BCD","name":"Bacolod-Silay City International Airport","city":"Bacolod City","country":"PH","lat":10.7763996124,"lng":123.0149993896},{"iata":"BCE","name":"Bryce Canyon Airport","city":"Bryce Canyon","country":"US","lat":37.706401825,"lng":-112.144996643},{"iata":"BCF","name":"Bouca Airport","city":"Bouca","country":"CF","lat":6.5170001984,"lng":18.2670001984},{"iata":"BCG","name":"Bemichi Airport","city":"Bemichi","country":"GY","lat":7.6999998093,"lng":-59.1666603088},{"iata":"BCH","name":"Cakung Airport","city":"Baucau","country":"TL","lat":-8.4890298843,"lng":126.401000977},{"iata":"BCI","name":"Barcaldine Airport","city":"Barcaldine","country":"AU","lat":-23.5652999878,"lng":145.307006836},{"iata":"BCL","name":"Barra del Colorado Airport","city":"Pococi","country":"CR","lat":10.768699646,"lng":-83.5856018066},{"iata":"BCM","name":"Bacau Airport","city":"Bacau","country":"RO","lat":46.521900177,"lng":26.9102993011},{"iata":"BCN","name":"Barcelona International Airport","city":"Barcelona","country":"ES","lat":41.2971000671,"lng":2.0784599781},{"iata":"BCO","name":"Baco Airport","city":"Baco","country":"ET","lat":5.7828698158,"lng":36.5620002747},{"iata":"BCR","name":"Novo Campo Airport","city":"Boca Do Acre","country":"BR","lat":-8.8345603943,"lng":-67.3124008179},{"iata":"BCS","name":"Southern Seaplane Airport","city":"Belle Chasse","country":"US","lat":29.8661003113,"lng":-90.0222015381},{"iata":"BCT","name":"Boca Raton Airport","city":"Boca Raton","country":"US","lat":26.3784999847,"lng":-80.1076965332},{"iata":"BCX","name":"Beloretsk Airport","city":"Beloretsk","country":"RU","lat":53.9380989075,"lng":58.3400001526},{"iata":"BDA","name":"L.F. Wade International International Airport","city":"Hamilton","country":"BM","lat":32.3639984131,"lng":-64.6787033081},{"iata":"BDB","name":"Bundaberg Airport","city":"Bundaberg","country":"AU","lat":-24.9039001465,"lng":152.319000244},{"iata":"BDC","name":"Barra do Corda Airport","city":"Barra Do Corda","country":"BR","lat":-5.5025,"lng":-45.215833},{"iata":"BDD","name":"Badu Island Airport","city":"","country":"AU","lat":-10.1499996185,"lng":142.1734},{"iata":"BDE","name":"Baudette International Airport","city":"Baudette","country":"US","lat":48.7284011841,"lng":-94.612197876},{"iata":"BDF","name":"Rinkenberger Restricted Landing Area","city":"Bradford","country":"US","lat":41.2308998108,"lng":-89.6156997681},{"iata":"BDG","name":"Blanding Municipal Airport","city":"Blanding","country":"US","lat":37.58330154,"lng":-109.4830017},{"iata":"BDH","name":"Bandar Lengeh Airport","city":"Bandar Lengeh","country":"IR","lat":26.531999588,"lng":54.824798584},{"iata":"BDI","name":"Bird Island Airport","city":"Bird Island","country":"SC","lat":-3.72472,"lng":55.205299},{"iata":"BDJ","name":"Syamsudin Noor Airport","city":"Banjarmasin-Borneo Island","country":"ID","lat":-3.4423599243,"lng":114.7630004883},{"iata":"BDK","name":"Soko Airport","city":"Bondoukou","country":"CI","lat":8.0172195435,"lng":-2.7619400024},{"iata":"BDL","name":"Bradley International Airport","city":"Hartford","country":"US","lat":41.9388999939,"lng":-72.6831970215},{"iata":"BDM","name":"Bandirma Airport","city":"Bandirma","country":"TR","lat":40.3180007935,"lng":27.9776992798},{"iata":"BDN","name":"Talhar Airport","city":"Badin","country":"PK","lat":24.8414993286,"lng":68.8384017944},{"iata":"BDO","name":"Husein Sastranegara International Airport","city":"Bandung-Java Island","country":"ID","lat":-6.9006299973,"lng":107.5759963989},{"iata":"BDP","name":"Bhadrapur Airport","city":"Bhadrapur","country":"NP","lat":26.5708007812,"lng":88.0795974731},{"iata":"BDQ","name":"Vadodara Airport","city":"Vadodara","country":"IN","lat":22.3362007141,"lng":73.2263031006},{"iata":"BDR","name":"Igor I Sikorsky Memorial Airport","city":"Bridgeport","country":"US","lat":41.1635017395,"lng":-73.1261978149},{"iata":"BDS","name":"Brindisi / Casale Airport","city":"Brindisi","country":"IT","lat":40.6576004028,"lng":17.9470005035},{"iata":"BDT","name":"Gbadolite Airport","city":"","country":"CD","lat":4.2532100677,"lng":20.9752998352},{"iata":"BDU","name":"Bardufoss Airport","city":"Malselv","country":"NO","lat":69.0558013916,"lng":18.5403995514},{"iata":"BDV","name":"Moba Airport","city":"Moba","country":"CD","lat":-7.0669999123,"lng":29.783000946},{"iata":"BDW","name":"Bedford Downs Airport","city":"","country":"AU","lat":-17.286699295,"lng":127.462997437},{"iata":"BDX","name":"Broadus Airport","city":"Broadus","country":"US","lat":45.47249985,"lng":-105.4540024},{"iata":"BDY","name":"Bandon State Airport","city":"Bandon","country":"US","lat":43.08649826,"lng":-124.4079971},{"iata":"BDZ","name":"Baindoung Airport","city":"","country":"PG","lat":-6.3472222222,"lng":146.942222222},{"iata":"BEB","name":"Benbecula Airport","city":"Balivanich","country":"GB","lat":57.481098175,"lng":-7.3627800941},{"iata":"BEC","name":"Beech Factory Airport","city":"Wichita","country":"US","lat":37.6944999695,"lng":-97.2149963379},{"iata":"BED","name":"Laurence G Hanscom Field","city":"Bedford","country":"US","lat":42.47000122,"lng":-71.28900146},{"iata":"BEF","name":"Bluefields Airport","city":"Bluefileds","country":"NI","lat":11.9910001755,"lng":-83.7741012573},{"iata":"BEG","name":"Belgrade Nikola Tesla Airport","city":"Belgrad","country":"RS","lat":44.8184013367,"lng":20.3090991974},{"iata":"BEH","name":"Southwest Michigan Regional Airport","city":"Benton Harbor","country":"US","lat":42.1286010742,"lng":-86.4284973145},{"iata":"BEI","name":"Beica Airport","city":"Beica","country":"ET","lat":9.3863897324,"lng":34.521900177},{"iata":"BEJ","name":"Barau(Kalimaru) Airport","city":"Tanjung Redep-Borneo Island","country":"ID","lat":2.1554999352,"lng":117.431999207},{"iata":"BEK","name":"Bareilly Air Force Station","city":"","country":"IN","lat":28.4221000671,"lng":79.4507980347},{"iata":"BEL","name":"Val de Cans/Julio Cezar Ribeiro International Airport","city":"Belem","country":"BR","lat":-1.3792500496,"lng":-48.4762992859},{"iata":"BEM","name":"Beni Mellal Airport","city":"","country":"MA","lat":32.4000015259,"lng":-6.3333301544},{"iata":"BEN","name":"Benina International Airport","city":"Benghazi","country":"LY","lat":32.0968017578,"lng":20.2695007324},{"iata":"BEO","name":"Aeropelican Airport","city":"","country":"AU","lat":-33.0666999817,"lng":151.6479949951},{"iata":"BEP","name":"Bellary Airport","city":"Bellary","country":"IN","lat":15.1627998352,"lng":76.8827972412},{"iata":"BEQ","name":"RAF Honington","city":"Thetford","country":"GB","lat":52.3426017761,"lng":0.7729390264},{"iata":"BER","name":"Berlin Brandenburg Airport","city":"Berlin","country":"DE","lat":52.366667,"lng":13.503333},{"iata":"BES","name":"Brest Bretagne Airport","city":"Brest/Guipavas","country":"FR","lat":48.4478988647,"lng":-4.4185400009},{"iata":"BET","name":"Bethel Airport","city":"Bethel","country":"US","lat":60.77980042,"lng":-161.8379974},{"iata":"BEU","name":"Bedourie Airport","city":"","country":"AU","lat":-24.3460998535,"lng":139.4600067139},{"iata":"BEV","name":"Be'er Sheva (Teyman) Airport","city":"Beersheva","country":"IL","lat":31.2870006561,"lng":34.7229995728},{"iata":"BEW","name":"Beira Airport","city":"Beira","country":"MZ","lat":-19.7964000702,"lng":34.9076004028},{"iata":"BEX","name":"RAF Benson","city":"Benson","country":"GB","lat":51.6164016724,"lng":-1.0958299637},{"iata":"BEY","name":"Beirut Rafic Hariri International Airport","city":"Beirut","country":"LB","lat":33.8208999634,"lng":35.4883995056},{"iata":"BEZ","name":"Beru Airport","city":"Beru","country":"KI","lat":-1.3547199965,"lng":176.0070037842},{"iata":"BFA","name":"Bahia Negra Airport","city":"Bahia Negra","country":"PY","lat":-20.2245998383,"lng":-58.1791992188},{"iata":"BFD","name":"Bradford Regional Airport","city":"Bradford","country":"US","lat":41.8031005859,"lng":-78.6400985718},{"iata":"BFE","name":"Bielefeld Airport","city":"Bielefeld","country":"DE","lat":51.9647216797,"lng":8.5444440842},{"iata":"BFF","name":"Western Neb. Rgnl/William B. Heilig Airport","city":"Scottsbluff","country":"US","lat":41.87400055,"lng":-103.5960007},{"iata":"BFG","name":"Bullfrog Basin Airport","city":"Glen Canyon Natl Rec Area","country":"US","lat":37.54579926,"lng":-110.7129974},{"iata":"BFH","name":"Bacacheri Airport","city":"Curitiba","country":"BR","lat":-25.4050998688,"lng":-49.2319984436},{"iata":"BFI","name":"Boeing Field King County International Airport","city":"Seattle","country":"US","lat":47.5299987793,"lng":-122.3020019531},{"iata":"BFJ","name":"Bijie Feixiong Airport","city":"Bijie","country":"CN","lat":27.266667,"lng":105.479167},{"iata":"BFK","name":"Buckley Air Force Base","city":"Aurora","country":"US","lat":39.7016983032,"lng":-104.751998901},{"iata":"BFL","name":"Meadows Field","city":"Bakersfield","country":"US","lat":35.43360138,"lng":-119.0569992},{"iata":"BFM","name":"Mobile Downtown Airport","city":"Mobile","country":"US","lat":30.6268005371,"lng":-88.0680999756},{"iata":"BFN","name":"J B M Hertzog International Airport","city":"Bloemfontain","country":"ZA","lat":-29.0926990509,"lng":26.302400589},{"iata":"BFO","name":"Buffalo Range Airport","city":"Chiredzi","country":"ZW","lat":-21.0081005096,"lng":31.5785999298},{"iata":"BFP","name":"Beaver County Airport","city":"Beaver Falls","country":"US","lat":40.7724990845,"lng":-80.3914031982},{"iata":"BFR","name":"Virgil I Grissom Municipal Airport","city":"Bedford","country":"US","lat":38.84000015,"lng":-86.44539642},{"iata":"BFS","name":"Belfast International Airport","city":"Belfast","country":"GB","lat":54.6575012207,"lng":-6.2158298492},{"iata":"BFT","name":"Beaufort County Airport","city":"Beaufort","country":"US","lat":32.4122009277,"lng":-80.6343994141},{"iata":"BFU","name":"Bengbu Airport","city":"Bengbu","country":"CN","lat":32.8477333333,"lng":117.320244444},{"iata":"BFV","name":"Buri Ram Airport","city":"","country":"TH","lat":15.2294998169,"lng":103.2529983521},{"iata":"BFW","name":"Sidi Bel Abbes Airport","city":"","country":"DZ","lat":35.1717987061,"lng":-0.5932750106},{"iata":"BFX","name":"Bafoussam Airport","city":"Bafoussam","country":"CM","lat":5.5369200707,"lng":10.3545999527},{"iata":"BGA","name":"Palonegro Airport","city":"Bucaramanga","country":"CO","lat":7.1265,"lng":-73.1848},{"iata":"BGB","name":"Booue Airport","city":"Booue","country":"GA","lat":-0.1000000015,"lng":11.9499998093},{"iata":"BGC","name":"Braganca Airport","city":"","country":"PT","lat":41.85779953,"lng":-6.7071299553},{"iata":"BGD","name":"Hutchinson County Airport","city":"Borger","country":"US","lat":35.7009010315,"lng":-101.393997192},{"iata":"BGE","name":"Decatur County Industrial Air Park","city":"Bainbridge","country":"US","lat":30.9715004,"lng":-84.63739777},{"iata":"BGF","name":"Bangui M'Poko International Airport","city":"Bangui","country":"CF","lat":4.3984799385,"lng":18.5188007355},{"iata":"BGG","name":"Bingöl Airport","city":"Bingöl","country":"TR","lat":38.861111,"lng":40.5925},{"iata":"BGH","name":"Abbaye Airport","city":"Boghe","country":"MR","lat":16.6333141327,"lng":-14.2000007629},{"iata":"BGI","name":"Sir Grantley Adams International Airport","city":"Bridgetown","country":"BB","lat":13.0746002197,"lng":-59.4925003052},{"iata":"BGJ","name":"Borgarfjordur eystri Airport","city":"Borgarfjordur eystri","country":"IS","lat":65.5164031982,"lng":-13.8050003052},{"iata":"BGL","name":"Baglung Airport","city":"Baglung","country":"NP","lat":28.2127990723,"lng":83.6662979126},{"iata":"BGM","name":"Greater Binghamton/Edwin A Link field","city":"Binghamton","country":"US","lat":42.20869827,"lng":-75.97979736},{"iata":"BGN","name":"Belaya Gora Airport","city":"Belaya Gora","country":"RU","lat":68.556944,"lng":146.234722},{"iata":"BGO","name":"Bergen Airport Flesland","city":"Bergen","country":"NO","lat":60.2933998108,"lng":5.2181401253},{"iata":"BGQ","name":"Big Lake Airport","city":"Big Lake","country":"US","lat":61.5360984802,"lng":-149.8139953613},{"iata":"BGR","name":"Bangor International Airport","city":"Bangor","country":"US","lat":44.8073997498,"lng":-68.8281021118},{"iata":"BGS","name":"Big Spring Mc Mahon-Wrinkle Airport","city":"Big Spring","country":"US","lat":32.21260071,"lng":-101.5220032},{"iata":"BGT","name":"Bagdad Airport","city":"Bagdad","country":"US","lat":34.5959014893,"lng":-113.1699981689},{"iata":"BGU","name":"Bangassou Airport","city":"Bangassou","country":"CF","lat":4.7849998474,"lng":22.7810001373},{"iata":"BGV","name":"Aeroclube de Bento Goncalves Airport","city":"Bento Goncalves","country":"BR","lat":-29.1483325958,"lng":-51.5363883972},{"iata":"BGW","name":"Baghdad International Airport","city":"Baghdad","country":"IQ","lat":33.2625007629,"lng":44.2346000671},{"iata":"BGX","name":"Comandante Gustavo Kraemer Airport","city":"Bage","country":"BR","lat":-31.390499115,"lng":-54.1122016907},{"iata":"BGY","name":"Bergamo / Orio Al Serio Airport","city":"Bergamo","country":"IT","lat":45.6739006042,"lng":9.7041702271},{"iata":"BGZ","name":"Braga Municipal Aerodrome","city":"Braga","country":"PT","lat":41.5871009827,"lng":-8.445139885},{"iata":"BHA","name":"Los Perales Airport","city":"Bahia de Caraquez","country":"EC","lat":-0.6081110239,"lng":-80.4027023315},{"iata":"BHB","name":"Hancock County-Bar Harbor Airport","city":"Bar Harbor","country":"US","lat":44.45000076,"lng":-68.3615036},{"iata":"BHD","name":"George Best Belfast City Airport","city":"Belfast","country":"GB","lat":54.6180992126,"lng":-5.8724999428},{"iata":"BHE","name":"Woodbourne Airport","city":"Blenheim","country":"NZ","lat":-41.5182991028,"lng":173.8699951172},{"iata":"BHF","name":"Cupica Airport","city":"Bahia Solano","country":"CO","lat":6.691944,"lng":-77.477222},{"iata":"BHG","name":"Brus Laguna Airport","city":"Brus Laguna","country":"HN","lat":15.7630996704,"lng":-84.5436019897},{"iata":"BHH","name":"Bisha Airport","city":"","country":"SA","lat":19.9843997955,"lng":42.6208992004},{"iata":"BHI","name":"Comandante Espora Airport","city":"Bahia Blanca","country":"AR","lat":-38.725,"lng":-62.1693},{"iata":"BHJ","name":"Bhuj Airport","city":"Bhuj","country":"IN","lat":23.2877998352,"lng":69.6701965332},{"iata":"BHK","name":"Bukhara Airport","city":"Bukhara","country":"UZ","lat":39.7750015259,"lng":64.4832992554},{"iata":"BHM","name":"Birmingham-Shuttlesworth International Airport","city":"Birmingham","country":"US","lat":33.56290054,"lng":-86.75350189},{"iata":"BHN","name":"Beihan Airport","city":"","country":"YE","lat":14.781999588,"lng":45.7201004028},{"iata":"BHO","name":"Bhopal Airport","city":"Bhopal","country":"IN","lat":23.2875003815,"lng":77.3374023438},{"iata":"BHP","name":"Bhojpur Airport","city":"Bhojpur","country":"NP","lat":27.1473999023,"lng":87.0507965088},{"iata":"BHQ","name":"Broken Hill Airport","city":"Broken Hill","country":"AU","lat":-32.0013999939,"lng":141.472000122},{"iata":"BHR","name":"Bharatpur Airport","city":"Bharatpur","country":"NP","lat":27.6781005859,"lng":84.429397583},{"iata":"BHS","name":"Bathurst Airport","city":"Bathurst","country":"AU","lat":-33.4094009399,"lng":149.651992798},{"iata":"BHU","name":"Bhavnagar Airport","city":"Bhavnagar","country":"IN","lat":21.752199173,"lng":72.1852035522},{"iata":"BHV","name":"Bahawalpur Airport","city":"Bahawalpur","country":"PK","lat":29.3481006622,"lng":71.7180023193},{"iata":"BHW","name":"Bhagatanwala Airport","city":"Bhagatanwala","country":"PK","lat":32.056098938,"lng":72.9484024048},{"iata":"BHX","name":"Birmingham International Airport","city":"Birmingham","country":"GB","lat":52.4538993835,"lng":-1.7480299473},{"iata":"BHY","name":"Beihai Airport","city":"Beihai","country":"CN","lat":21.5394001007,"lng":109.2939987183},{"iata":"BIA","name":"Bastia-Poretta Airport","city":"Bastia/Poretta","country":"FR","lat":42.5527000427,"lng":9.4837303162},{"iata":"BIB","name":"Baidoa Airport","city":"Baidoa","country":"SO","lat":3.1022200584,"lng":43.6286010742},{"iata":"BID","name":"Block Island State Airport","city":"Block Island","country":"US","lat":41.1680984497,"lng":-71.577796936},{"iata":"BIE","name":"Beatrice Municipal Airport","city":"Beatrice","country":"US","lat":40.3013000488,"lng":-96.7540969849},{"iata":"BIF","name":"Biggs Army Air Field (Fort Bliss)","city":"Fort Bliss/El Paso","country":"US","lat":31.84950066,"lng":-106.3799973},{"iata":"BIG","name":"Allen Army Airfield","city":"Delta Junction Ft Greely","country":"US","lat":63.9944992065,"lng":-145.722000122},{"iata":"BIH","name":"Eastern Sierra Regional Airport","city":"Bishop","country":"US","lat":37.3731002808,"lng":-118.363998413},{"iata":"BIK","name":"Frans Kaisiepo Airport","city":"Biak-Supiori Island","country":"ID","lat":-1.1900199652,"lng":136.108001709},{"iata":"BIL","name":"Billings Logan International Airport","city":"Billings","country":"US","lat":45.8077011108,"lng":-108.5429992676},{"iata":"BIM","name":"South Bimini Airport","city":"South Bimini","country":"BS","lat":25.6998996735,"lng":-79.2647018433},{"iata":"BIN","name":"Bamiyan Airport","city":"Bamiyan","country":"AF","lat":34.8170013428,"lng":67.8170013428},{"iata":"BIO","name":"Bilbao Airport","city":"Bilbao","country":"ES","lat":43.3011016846,"lng":-2.9106099606},{"iata":"BIP","name":"Bulimba Airport","city":"","country":"AU","lat":-16.8808002472,"lng":143.479003906},{"iata":"BIQ","name":"Biarritz-Anglet-Bayonne Airport","city":"Biarritz/Anglet/Bayonne","country":"FR","lat":43.4683990479,"lng":-1.5233199596},{"iata":"BIR","name":"Biratnagar Airport","city":"Biratnagar","country":"NP","lat":26.4815006256,"lng":87.263999939},{"iata":"BIS","name":"Bismarck Municipal Airport","city":"Bismarck","country":"US","lat":46.7727012634,"lng":-100.7460021973},{"iata":"BIT","name":"Baitadi Airport","city":"Baitadi","country":"NP","lat":29.4652996063,"lng":80.5492019653},{"iata":"BIU","name":"Bildudalur Airport","city":"Bildudalur","country":"IS","lat":65.6412963867,"lng":-23.5461997986},{"iata":"BIV","name":"Bria Airport","city":"Bria","country":"CF","lat":6.527780056,"lng":21.9894008636},{"iata":"BIW","name":"Billiluna Airport","city":"","country":"AU","lat":-19.5666999817,"lng":127.666999817},{"iata":"BIX","name":"Keesler Air Force Base","city":"Biloxi","country":"US","lat":30.4104003906,"lng":-88.9244003296},{"iata":"BIY","name":"Bisho Airport","city":"Bisho","country":"ZA","lat":-32.8970985413,"lng":27.2791004181},{"iata":"BJA","name":"Soummam Airport","city":"Bejaia","country":"DZ","lat":36.7120018005,"lng":5.069920063},{"iata":"BJB","name":"Bojnord Airport","city":"Bojnord","country":"IR","lat":37.4930000305,"lng":57.3082008362},{"iata":"BJC","name":"Rocky Mountain Metropolitan Airport","city":"Denver","country":"US","lat":39.90879822,"lng":-105.1169968},{"iata":"BJD","name":"Bakkafjordur Airport","city":"Bakkafjordur","country":"IS","lat":66.0218963623,"lng":-14.8243999481},{"iata":"BJF","name":"Batsfjord Airport","city":"Batsfjord","country":"NO","lat":70.6005020142,"lng":29.691400528},{"iata":"BJH","name":"Bajhang Airport","city":"Bajhang","country":"NP","lat":29.5389995575,"lng":81.1854019165},{"iata":"BJI","name":"Bemidji Regional Airport","city":"Bemidji","country":"US","lat":47.50939941,"lng":-94.93370056},{"iata":"BJJ","name":"Wayne County Airport","city":"Wooster","country":"US","lat":40.8748016357,"lng":-81.8882980347},{"iata":"BJK","name":"Nangasuri Airport","city":"Maikoor Island","country":"ID","lat":-6.0661997795,"lng":134.2740020752},{"iata":"BJL","name":"Banjul International Airport","city":"Banjul","country":"GM","lat":13.3380002975,"lng":-16.6522006989},{"iata":"BJM","name":"Bujumbura International Airport","city":"Bujumbura","country":"BI","lat":-3.3240199089,"lng":29.3185005188},{"iata":"BJO","name":"Bermejo Airport","city":"Bermejo","country":"BO","lat":-22.7733001709,"lng":-64.3128967285},{"iata":"BJP","name":"Aeroporto Estadual Arthur Siqueira Airport","city":"Braganca Paulista","country":"BR","lat":-22.979167,"lng":-46.5375},{"iata":"BJR","name":"Bahir Dar Airport","city":"Bahir Dar","country":"ET","lat":11.6080999374,"lng":37.3216018677},{"iata":"BJU","name":"Bajura Airport","city":"Bajura","country":"NP","lat":29.5020008087,"lng":81.6689987183},{"iata":"BJV","name":"Milas Bodrum International Airport","city":"Bodrum","country":"TR","lat":37.2505989075,"lng":27.6643009186},{"iata":"BJW","name":"Bajawa Soa Airport","city":"Bajawa","country":"ID","lat":-8.7074349801,"lng":121.057426929},{"iata":"BJX","name":"Del Bajio International Airport","city":"Silao","country":"MX","lat":20.9934997559,"lng":-101.481002808},{"iata":"BJY","name":"Batajnica Air Base","city":"Batajnica","country":"RS","lat":44.935299,"lng":20.2575},{"iata":"BJZ","name":"Badajoz Airport","city":"Badajoz","country":"ES","lat":38.8913002014,"lng":-6.8213300705},{"iata":"BKA","name":"Bykovo Airport","city":"Moscow","country":"RU","lat":55.6171989441,"lng":38.0600013733},{"iata":"BKB","name":"Nal Airport","city":"Bikaner","country":"IN","lat":28.0706005096,"lng":73.2071990967},{"iata":"BKC","name":"Buckland Airport","city":"Buckland","country":"US","lat":65.9815979004,"lng":-161.149002075},{"iata":"BKD","name":"Stephens County Airport","city":"Breckenridge","country":"US","lat":32.71900177,"lng":-98.8909988403},{"iata":"BKE","name":"Baker City Municipal Airport","city":"Baker City","country":"US","lat":44.8372993469,"lng":-117.808998108},{"iata":"BKG","name":"Branson Airport","city":"Branson","country":"US","lat":36.532082,"lng":-93.200544},{"iata":"BKH","name":"Barking Sands Airport","city":"Kekaha","country":"US","lat":22.0228004456,"lng":-159.785003662},{"iata":"BKI","name":"Kota Kinabalu International Airport","city":"Kota Kinabalu","country":"MY","lat":5.937210083,"lng":116.0510025024},{"iata":"BKJ","name":"Boke Airport","city":"Boke","country":"GN","lat":10.9658002853,"lng":-14.2811002731},{"iata":"BKK","name":"Suvarnabhumi Airport","city":"Bangkok","country":"TH","lat":13.6810998917,"lng":100.7470016479},{"iata":"BKL","name":"Burke Lakefront Airport","city":"Cleveland","country":"US","lat":41.5175018311,"lng":-81.6832962036},{"iata":"BKM","name":"Bakalalan Airport","city":"Bakalalan","country":"MY","lat":3.9739999771,"lng":115.6179962158},{"iata":"BKN","name":"Balkanabat International Airport","city":"Jebel","country":"TM","lat":39.6805,"lng":54.204667},{"iata":"BKO","name":"Senou Airport","city":"Senou","country":"ML","lat":12.5334997177,"lng":-7.9499402046},{"iata":"BKP","name":"Barkly Downs Airport","city":"","country":"AU","lat":-20.4958333333,"lng":138.474722222},{"iata":"BKQ","name":"Blackall Airport","city":"Blackall","country":"AU","lat":-24.4277992249,"lng":145.429000854},{"iata":"BKR","name":"Bokoro Airport","city":"Bokoro","country":"TD","lat":12.3830003738,"lng":17.0669994354},{"iata":"BKS","name":"Padang Kemiling (Fatmawati Soekarno) Airport","city":"Bengkulu-Sumatra Island","country":"ID","lat":-3.863699913,"lng":102.3389968872},{"iata":"BKT","name":"Allen C Perkinson Blackstone Army Air Field","city":"Blackstone","country":"US","lat":37.0741996765,"lng":-77.9574966431},{"iata":"BKU","name":"Betioky Airport","city":"Betioky","country":"MG","lat":-23.7329998016,"lng":44.388999939},{"iata":"BKW","name":"Raleigh County Memorial Airport","city":"Beckley","country":"US","lat":37.7873001099,"lng":-81.1241989136},{"iata":"BKX","name":"Brookings Regional Airport","city":"Brookings","country":"US","lat":44.3047981262,"lng":-96.8169021606},{"iata":"BKY","name":"Bukavu Kavumu Airport","city":"","country":"CD","lat":-2.3089799881,"lng":28.8087997437},{"iata":"BKZ","name":"Bukoba Airport","city":"Bukoba","country":"TZ","lat":-1.332,"lng":31.8212},{"iata":"BLA","name":"General Jose Antonio Anzoategui International Airport","city":"Barcelona","country":"VE","lat":10.1070995331,"lng":-64.689201355},{"iata":"BLB","name":"Howard/Panama Pacifico International Airport","city":"Panama City","country":"PA","lat":8.9147901535,"lng":-79.5996017456},{"iata":"BLC","name":"Bali Airport","city":"Bali","country":"CM","lat":5.8952777778,"lng":10.0338888889},{"iata":"BLD","name":"Boulder City Municipal Airport","city":"Boulder City","country":"US","lat":35.9474983215,"lng":-114.861000061},{"iata":"BLE","name":"Borlange Airport","city":"","country":"SE","lat":60.422000885,"lng":15.5151996613},{"iata":"BLF","name":"Mercer County Airport","city":"Bluefield","country":"US","lat":37.2957992554,"lng":-81.2077026367},{"iata":"BLG","name":"Belaga Airport","city":"Belaga","country":"MY","lat":2.6500000954,"lng":113.766998291},{"iata":"BLH","name":"Blythe Airport","city":"Blythe","country":"US","lat":33.6192016602,"lng":-114.717002869},{"iata":"BLI","name":"Bellingham International Airport","city":"Bellingham","country":"US","lat":48.7928009033,"lng":-122.5380020142},{"iata":"BLJ","name":"Batna Airport","city":"Batna","country":"DZ","lat":35.7521018982,"lng":6.3085899353},{"iata":"BLK","name":"Blackpool International Airport","city":"Blackpool","country":"GB","lat":53.7717018127,"lng":-3.0286099911},{"iata":"BLL","name":"Billund Airport","city":"Billund","country":"DK","lat":55.7402992249,"lng":9.1517801285},{"iata":"BLM","name":"Monmouth Executive Airport","city":"Belmar/Farmingdale","country":"US","lat":40.18690109,"lng":-74.12490082},{"iata":"BLN","name":"Benalla Airport","city":"","country":"AU","lat":-36.5518989563,"lng":146.0070037842},{"iata":"BLO","name":"Hjaltabakki Airport","city":"Blonduos","country":"IS","lat":65.6449966431,"lng":-20.2875003815},{"iata":"BLP","name":"Huallaga Airport","city":"Bellavista","country":"PE","lat":-7.0605602264,"lng":-76.5821990967},{"iata":"BLQ","name":"Bologna / Borgo Panigale Airport","city":"Bologna","country":"IT","lat":44.5354003906,"lng":11.2887001038},{"iata":"BLR","name":"Bengaluru International Airport","city":"Bangalore","country":"IN","lat":13.1978998184,"lng":77.7062988281},{"iata":"BLS","name":"Bollon Airport","city":"","country":"AU","lat":-28.0583000183,"lng":147.483001709},{"iata":"BLT","name":"Blackwater Airport","city":"","country":"AU","lat":-23.603099823,"lng":148.8070068359},{"iata":"BLU","name":"Blue Canyon Nyack Airport","city":"Emigrant Gap","country":"US","lat":39.2750015259,"lng":-120.709999084},{"iata":"BLV","name":"Scott AFB/Midamerica Airport","city":"Belleville","country":"US","lat":38.54520035,"lng":-89.83519745},{"iata":"BLX","name":"Belluno Airport","city":"Belluno","country":"IT","lat":46.1674995422,"lng":12.2479000092},{"iata":"BLY","name":"Belmullet Aerodrome","city":"Belmullet","country":"IE","lat":54.2228012085,"lng":-10.0307998657},{"iata":"BLZ","name":"Chileka International Airport","city":"Blantyre","country":"MW","lat":-15.6791000366,"lng":34.9739990234},{"iata":"BMA","name":"Stockholm-Bromma Airport","city":"Stockholm","country":"SE","lat":59.3544006348,"lng":17.9416999817},{"iata":"BMB","name":"Bumbar Airport","city":"Bumbar","country":"CD","lat":2.1827800274,"lng":22.4817008972},{"iata":"BMC","name":"Brigham City Airport","city":"Brigham City","country":"US","lat":41.5523986816,"lng":-112.06199646},{"iata":"BMD","name":"Belo sur Tsiribihina Airport","city":"Belo sur Tsiribihina","country":"MG","lat":-19.6867008209,"lng":44.5419006348},{"iata":"BME","name":"Broome International Airport","city":"Broome","country":"AU","lat":-17.9447002411,"lng":122.2320022583},{"iata":"BMF","name":"Bakouma Airport","city":"Bakouma","country":"CF","lat":5.6939997673,"lng":22.8010005951},{"iata":"BMG","name":"Monroe County Airport","city":"Bloomington","country":"US","lat":39.1459999084,"lng":-86.6166992188},{"iata":"BMI","name":"Central Illinois Regional Airport at Bloomington-Normal","city":"Bloomington-Normal","country":"US","lat":40.47710037,"lng":-88.91590118},{"iata":"BMJ","name":"Baramita Airport","city":"Baramita","country":"GY","lat":7.3701200485,"lng":-60.4879989624},{"iata":"BMK","name":"Borkum Airport","city":"Borkum","country":"DE","lat":53.5963897705,"lng":6.7091670036},{"iata":"BML","name":"Berlin Regional Airport","city":"Berlin","country":"US","lat":44.57540131,"lng":-71.17590332},{"iata":"BMM","name":"Bitam Airport","city":"Bitam","country":"GA","lat":2.0756399632,"lng":11.4932003021},{"iata":"BMN","name":"Bamarni Airport","city":"Bamarni","country":"IQ","lat":37.0988006592,"lng":43.2666015625},{"iata":"BMO","name":"Banmaw Airport","city":"Banmaw","country":"MM","lat":24.2689990997,"lng":97.2462005615},{"iata":"BMP","name":"Brampton Island Airport","city":"","country":"AU","lat":-20.8033008575,"lng":149.2700042725},{"iata":"BMR","name":"Baltrum Airport","city":"Baltrum","country":"DE","lat":53.7247238159,"lng":7.3733329773},{"iata":"BMS","name":"Socrates Mariani Bittencourt Airport","city":"Brumado","country":"BR","lat":-14.255399704,"lng":-41.8175010681},{"iata":"BMT","name":"Beaumont Municipal Airport","city":"Beaumont","country":"US","lat":30.0706996918,"lng":-94.2157974243},{"iata":"BMU","name":"Muhammad Salahuddin Airport","city":"Bima-Sumbawa Island","country":"ID","lat":-8.5396499634,"lng":118.68699646},{"iata":"BMV","name":"Buon Ma Thuot Airport","city":"Buon Ma Thuot","country":"VN","lat":12.668299675,"lng":108.120002747},{"iata":"BMW","name":"Bordj Badji Mokhtar Airport","city":"Bordj Badji Mokhtar","country":"DZ","lat":21.375,"lng":0.9238889813},{"iata":"BMX","name":"Big Mountain Airport","city":"Big Mountain","country":"US","lat":59.3611984253,"lng":-155.259002686},{"iata":"BMY","name":"Ile Art - Waala Airport","city":"Waala","country":"NC","lat":-19.7206001282,"lng":163.6609954834},{"iata":"BNA","name":"Nashville International Airport","city":"Nashville","country":"US","lat":36.1245002747,"lng":-86.6781997681},{"iata":"BNB","name":"Boende Airport","city":"Boende","country":"CD","lat":-0.2169999927,"lng":20.8500003815},{"iata":"BNC","name":"Beni Airport","city":"Beni","country":"CD","lat":0.5749999881,"lng":29.4738998413},{"iata":"BND","name":"Bandar Abbas International Airport","city":"Bandar Abbas","country":"IR","lat":27.2182998657,"lng":56.3777999878},{"iata":"BNE","name":"Brisbane International Airport","city":"Brisbane","country":"AU","lat":-27.3841991425,"lng":153.1170043945},{"iata":"BNG","name":"Banning Municipal Airport","city":"Banning","country":"US","lat":33.9230995178,"lng":-116.850997925},{"iata":"BNI","name":"Benin Airport","city":"Benin","country":"NG","lat":6.3169798851,"lng":5.5995001793},{"iata":"BNJ","name":"Bonn-Hangelar Airport","city":"Bonn","country":"DE","lat":50.7688903809,"lng":7.1633329391},{"iata":"BNK","name":"Ballina Byron Gateway Airport","city":"Ballina","country":"AU","lat":-28.8339004517,"lng":153.56199646},{"iata":"BNL","name":"Barnwell Regional Airport","city":"Barnwell","country":"US","lat":33.25780106,"lng":-81.38829803},{"iata":"BNN","name":"Bronnoysund Airport","city":"Bronnoy","country":"NO","lat":65.4610977173,"lng":12.217499733},{"iata":"BNO","name":"Burns Municipal Airport","city":"Burns","country":"US","lat":43.5918998718,"lng":-118.955001831},{"iata":"BNP","name":"Bannu Airport","city":"Bannu","country":"PK","lat":32.9729003906,"lng":70.5279006958},{"iata":"BNR","name":"Banfora Airport","city":"Banfora","country":"BF","lat":10.6829996109,"lng":-4.7170000076},{"iata":"BNS","name":"Barinas Airport","city":"Barinas","country":"VE","lat":8.6195697784,"lng":-70.2208023071},{"iata":"BNU","name":"Blumenau Airport","city":"Blumenau","country":"BR","lat":-26.8306007385,"lng":-49.0903015137},{"iata":"BNW","name":"Boone Municipal Airport","city":"Boone","country":"US","lat":42.0495986938,"lng":-93.8476028442},{"iata":"BNX","name":"Banja Luka International Airport","city":"Banja Luka","country":"BA","lat":44.9413986206,"lng":17.2975006104},{"iata":"BNY","name":"Bellona/Anua Airport","city":"Anua","country":"SB","lat":-11.3022222222,"lng":159.798333333},{"iata":"BOA","name":"Boma Airport","city":"Boma","country":"CD","lat":-5.8540000916,"lng":13.0640001297},{"iata":"BOB","name":"Bora Bora Airport","city":"Motu Mute","country":"PF","lat":-16.4444007874,"lng":-151.7510070801},{"iata":"BOC","name":"Bocas Del Toro International Airport","city":"Isla Colon","country":"PA","lat":9.3408498764,"lng":-82.2508010864},{"iata":"BOD","name":"Bordeaux-Merignac (BA 106) Airport","city":"Bordeaux/Merignac","country":"FR","lat":44.8283004761,"lng":-0.7155560255},{"iata":"BOE","name":"Boundji Airport","city":"Boundji","country":"CG","lat":-1.0329999924,"lng":15.3830003738},{"iata":"BOG","name":"El Dorado International Airport","city":"Bogota","country":"CO","lat":4.70159,"lng":-74.1469},{"iata":"BOH","name":"Bournemouth Airport","city":"Bournemouth","country":"GB","lat":50.7799987793,"lng":-1.8424999714},{"iata":"BOI","name":"Boise Air Terminal/Gowen field","city":"Boise","country":"US","lat":43.56439972,"lng":-116.2229996},{"iata":"BOJ","name":"Burgas Airport","city":"Burgas","country":"BG","lat":42.5695991516,"lng":27.5151996613},{"iata":"BOL","name":"Ballykelly Airport","city":"Ballykelly","country":"GB","lat":55.0602989197,"lng":-7.0202798843},{"iata":"BOM","name":"Chhatrapati Shivaji International Airport","city":"Mumbai","country":"IN","lat":19.0886993408,"lng":72.8678970337},{"iata":"BON","name":"Flamingo International Airport","city":"Kralendijk","country":"BQ","lat":12.1309995651,"lng":-68.2685012817},{"iata":"BOO","name":"Bodo Airport","city":"Bodo","country":"NO","lat":67.269203186,"lng":14.3653001785},{"iata":"BOP","name":"Bouar Airport","city":"Bouar","country":"CF","lat":5.9580001831,"lng":15.6370000839},{"iata":"BOR","name":"Fontaine Airport","city":"Belfort","country":"FR","lat":47.6556015015,"lng":7.0108299255},{"iata":"BOS","name":"General Edward Lawrence Logan International Airport","city":"Boston","country":"US","lat":42.36429977,"lng":-71.00520325},{"iata":"BOU","name":"Bourges Airport","city":"Bourges","country":"FR","lat":47.0581016541,"lng":2.3702800274},{"iata":"BOW","name":"Bartow Municipal Airport","city":"Bartow","country":"US","lat":27.9433994293,"lng":-81.7834014893},{"iata":"BOX","name":"Borroloola Airport","city":"","country":"AU","lat":-16.0753002167,"lng":136.3020019531},{"iata":"BOY","name":"Bobo Dioulasso Airport","city":"Bobo Dioulasso","country":"BF","lat":11.1600999832,"lng":-4.3309698105},{"iata":"BOZ","name":"Bozoum Airport","city":"Bozoum","country":"CF","lat":6.3441700935,"lng":16.3218994141},{"iata":"BPC","name":"Bamenda Airport","city":"Bamenda","country":"CM","lat":6.0392398834,"lng":10.1225996017},{"iata":"BPF","name":"Batuna Aerodrome","city":"Batuna Mission Station","country":"SB","lat":-8.5620277778,"lng":158.119305556},{"iata":"BPG","name":"Barra do Garcas Airport","city":"Barra Do Garcas","country":"BR","lat":-15.8613004684,"lng":-52.3889007568},{"iata":"BPH","name":"Bislig Airport","city":"","country":"PH","lat":8.1959495544,"lng":126.3219985962},{"iata":"BPI","name":"Miley Memorial Field","city":"Big Piney","country":"US","lat":42.58509827,"lng":-110.1110001},{"iata":"BPL","name":"Alashankou Bole (Bortala) airport","city":"Bole","country":"CN","lat":44.895,"lng":82.3},{"iata":"BPM","name":"Begumpet Airport","city":"Hyderabad","country":"IN","lat":17.4531002045,"lng":78.4675979614},{"iata":"BPN","name":"Sepinggan International Airport","city":"Balikpapan-Borneo Island","country":"ID","lat":-1.2682700157,"lng":116.8939971924},{"iata":"BPR","name":"Borongan Airport","city":"Borongan City","country":"PH","lat":11.6743001938,"lng":125.478996277},{"iata":"BPS","name":"Porto Seguro Airport","city":"Porto Seguro","country":"BR","lat":-16.4386005402,"lng":-39.0808982849},{"iata":"BPT","name":"Jack Brooks Regional Airport","city":"Beaumont/Port Arthur","country":"US","lat":29.950799942,"lng":-94.0206985474},{"iata":"BPX","name":"Qamdo Bangda Airport","city":"Bangda","country":"CN","lat":30.5536003113,"lng":97.1082992554},{"iata":"BPY","name":"Besalampy Airport","city":"","country":"MG","lat":-16.7445302965,"lng":44.4824838638},{"iata":"BQA","name":"Dr.Juan C. Angara Airport","city":"Baler","country":"PH","lat":15.7298002243,"lng":121.5},{"iata":"BQB","name":"Busselton Regional Airport","city":"Busselton","country":"AU","lat":-33.6884231567,"lng":115.401596069},{"iata":"BQD","name":"Budardalur Airport","city":"Budardalur","country":"IS","lat":65.075302124,"lng":-21.8003005981},{"iata":"BQE","name":"Bubaque Airport","city":"Bubaque","country":"GW","lat":11.2973556519,"lng":-15.8380794525},{"iata":"BQG","name":"Bogorodskoye Airport","city":"Bogorodskoye","country":"RU","lat":52.38,"lng":140.448},{"iata":"BQH","name":"London Biggin Hill Airport","city":"London","country":"GB","lat":51.3307991028,"lng":0.0324999988},{"iata":"BQK","name":"Brunswick Golden Isles Airport","city":"Brunswick","country":"US","lat":31.2588005066,"lng":-81.4664993286},{"iata":"BQL","name":"Boulia Airport","city":"","country":"AU","lat":-22.9132995605,"lng":139.8999938965},{"iata":"BQN","name":"Rafael Hernandez Airport","city":"Aguadilla","country":"PR","lat":18.4948997498,"lng":-67.1294021606},{"iata":"BQO","name":"Bouna Airport","city":"Bouna","country":"CI","lat":9.2775001526,"lng":-3.0252799988},{"iata":"BQQ","name":"Barra Airport","city":"Barra","country":"BR","lat":-11.0808000565,"lng":-43.1474990845},{"iata":"BQS","name":"Ignatyevo Airport","city":"Blagoveschensk","country":"RU","lat":50.4253997803,"lng":127.4120025635},{"iata":"BQT","name":"Brest Airport","city":"Brest","country":"BY","lat":52.1082992554,"lng":23.8980998993},{"iata":"BQU","name":"J F Mitchell Airport","city":"Bequia","country":"VC","lat":12.9884004593,"lng":-61.2620010376},{"iata":"BQW","name":"Balgo Hill Airport","city":"","country":"AU","lat":-20.1483001709,"lng":127.9729995728},{"iata":"BRA","name":"Barreiras Airport","city":"Barreiras","country":"BR","lat":-12.0789003372,"lng":-45.0089988708},{"iata":"BRB","name":"Barreirinhas Airport","city":"","country":"BR","lat":-2.7555555556,"lng":-42.81},{"iata":"BRC","name":"San Carlos De Bariloche Airport","city":"San Carlos de Bariloche","country":"AR","lat":-41.1511993408,"lng":-71.1575012207},{"iata":"BRD","name":"Brainerd Lakes Regional Airport","city":"Brainerd","country":"US","lat":46.39830017,"lng":-94.13809967},{"iata":"BRE","name":"Bremen Airport","city":"Bremen","country":"DE","lat":53.0475006104,"lng":8.7866697311},{"iata":"BRI","name":"Bari / Palese International Airport","city":"Bari","country":"IT","lat":41.1389007568,"lng":16.7605991364},{"iata":"BRK","name":"Bourke Airport","city":"","country":"AU","lat":-30.0391998291,"lng":145.9519958496},{"iata":"BRL","name":"Southeast Iowa Regional Airport","city":"Burlington","country":"US","lat":40.7831993103,"lng":-91.12550354},{"iata":"BRM","name":"Barquisimeto International Airport","city":"Barquisimeto","country":"VE","lat":10.0427465439,"lng":-69.3586196899},{"iata":"BRN","name":"Bern Belp Airport","city":"Bern","country":"CH","lat":46.914100647,"lng":7.4971499443},{"iata":"BRO","name":"Brownsville South Padre Island International Airport","city":"Brownsville","country":"US","lat":25.9067993164,"lng":-97.4259033203},{"iata":"BRQ","name":"Brno-Turany Airport","city":"Brno","country":"CZ","lat":49.1512985229,"lng":16.6944007874},{"iata":"BRR","name":"Barra Airport","city":"Eoligarry","country":"GB","lat":57.0228004456,"lng":-7.4430599213},{"iata":"BRS","name":"Bristol International Airport","city":"Bristol","country":"GB","lat":51.3827018738,"lng":-2.7190899849},{"iata":"BRT","name":"Bathurst Island Airport","city":"","country":"AU","lat":-11.769200325,"lng":130.6199951172},{"iata":"BRU","name":"Brussels Airport","city":"Brussels","country":"BE","lat":50.9014015198,"lng":4.4844398499},{"iata":"BRV","name":"Bremerhaven Airport","city":"Bremerhaven","country":"DE","lat":53.506942749,"lng":8.5727777481},